$GPRMC,132339.00,A,5616.09418,N,00621.63149,W,3.264,240.41,070618,3.50,W,A*3E
$GPVTG,240.41,T,243.91,M,3.264,N,6.045,K,A*29
$GPGGA,132339.00,5616.09418,N,00621.63149,W,1,10,0.79,2.9,M,52.8,M,,*40
$GPGSA,A,3,09,25,05,31,23,16,21,27,29,26,,,1.39,0.79,1.14*05
$GPGSV,3,1,11,04,79,146,38,05,15,039,37,09,13,325,36,16,51,288,26*79
$GPGSV,3,2,11,21,52,150,32,23,12,291,23,25,08,119,26,26,79,249,31*75
$GPGSV,3,3,11,27,16,247,22,29,39,069,32,31,30,191,24*4B
$GPGLL,5616.09418,N,00621.63149,W,132339.00,A,A*7E
$GPGST,132339.00,31,,,,3.7,2.2,6.0*5E
$IIHDM,294,M*33
$IIVHW,,T,294,M,00.00,N,00.00,K*6A
$IIDBT,088.7,f,027.0,M,014.7,F*11
!AIVDM,1,1,,A,4h2=aHAv9SeGWwP852PE?;700d0M,0*53
$IIVWR,044,R,12.1,N,06.2,M,022.5,K*54
$IIMTW,011,C*3D
$GPRMC,132340.00,A,5616.09371,N,00621.63289,W,3.284,240.29,070618,3.50,W,A*37
$GPVTG,240.29,T,243.79,M,3.284,N,6.083,K,A*25
$GPGGA,132340.00,5616.09371,N,00621.63289,W,1,10,0.79,3.3,M,52.8,M,,*42
$GPGSA,A,3,09,25,05,31,23,16,21,27,29,26,,,1.39,0.79,1.14*05
$GPGSV,3,1,11,04,79,146,36,05,15,039,34,09,13,325,37,16,51,288,31*73
$GPGSV,3,2,11,21,52,150,33,23,12,291,20,25,08,119,24,26,79,249,35*71
$GPGSV,3,3,11,27,16,247,23,29,39,069,32,31,30,191,23*4D
$GPGLL,5616.09371,N,00621.63289,W,132340.00,A,A*77
$GPGST,132340.00,32,,,,3.7,2.3,6.1*53
$IIHDM,294,M*33
$IIVHW,,T,294,M,00.00,N,00.00,K*6A
$IIDBT,090.2,f,027.5,M,015.0,F*1E
$IIVWR,041,R,12.2,N,06.2,M,022.6,K*51
$IIMTW,011,C*3D
$GPRMC,132341.00,A,5616.09322,N,00621.63447,W,3.523,241.46,070618,3.50,W,A*36
$GPVTG,241.46,T,244.97,M,3.523,N,6.524,K,A*28
$GPGGA,132341.00,5616.09322,N,00621.63447,W,1,10,0.79,3.2,M,52.8,M,,*40
$GPGSA,A,3,09,25,05,31,23,16,21,27,29,26,,,1.39,0.79,1.14*05
$GPGSV,3,1,11,04,79,146,36,05,15,039,30,09,13,325,38,16,51,288,30*79
$GPGSV,3,2,11,21,52,150,34,23,12,291,21,25,08,119,21,26,79,249,31*76
$GPGSV,3,3,11,27,16,247,25,29,39,069,30,31,30,191,22*48
$GPGLL,5616.09322,N,00621.63447,W,132341.00,A,A*74
$GPGST,132341.00,33,,,,3.7,2.3,6.2*50
$IIHDM,293,M*34
$IIVHW,,T,293,M,00.00,N,00.00,K*6D
$IIDBT,091.0,f,027.7,M,015.1,F*1E
$IIVWR,041,R,12.2,N,06.2,M,022.6,K*51
$IIMTW,011,C*3D
!AIVDM,1,1,,B,Dh2=aH@o`N?agLN00huN000,2*74
!AIVDM,1,1,,A,13aKd`001aOQdT8PAbt0o0ad08OV,0*30
$GPRMC,132342.00,A,5616.09281,N,00621.63603,W,3.292,242.41,070618,3.50,W,A*36
$GPVTG,242.41,T,245.91,M,3.292,N,6.097,K,A*2B
$GPGGA,132342.00,5616.09281,N,00621.63603,W,1,10,0.79,3.2,M,52.8,M,,*49
$GPGSA,A,3,09,25,05,31,23,16,21,27,29,26,,,1.39,0.79,1.14*05
$GPGSV,3,1,11,04,79,146,37,05,15,039,36,09,13,325,40,16,51,288,24*74
$GPGSV,3,2,11,21,52,150,34,23,12,291,28,25,08,119,17,26,79,249,29*73
$GPGSV,3,3,11,27,16,247,24,29,39,069,26,31,30,191,23*4F
$GPGLL,5616.09281,N,00621.63603,W,132342.00,A,A*7D
$GPGST,132342.00,39,,,,3.7,2.3,6.3*58
$IIHDM,292,M*35
$IIVHW,,T,292,M,00.00,N,00.00,K*6C
$IIDBT,092.0,f,028.0,M,015.3,F*17
$IIVWR,044,R,12.2,N,06.3,M,022.7,K*54
$IIMTW,011,C*3D
!AIVDM,1,1,,A,13P<tw1P11ORrw8P<LNCq?wD05aL,0*72
!AIVDM,1,1,,B,4h2=aHAv9SeGawP852PE?;700pP9,0*66
$GPRMC,132343.00,A,5616.09238,N,00621.63733,W,3.195,241.49,070618,3.50,W,A*38
$GPVTG,241.49,T,245.0,M,3.195,N,5.918,K,A*11
$GPGGA,132343.00,5616.09238,N,00621.63733,W,1,10,0.79,3.3,M,52.8,M,,*49
$GPGSA,A,3,09,25,05,31,23,16,21,27,29,26,,,1.39,0.79,1.14*05
$GPGSV,3,1,11,04,79,146,37,05,15,039,38,09,13,325,39,16,51,288,21*71
$GPGSV,3,2,11,21,52,150,34,23,12,291,27,25,08,119,17,26,79,249,32*76
$GPGSV,3,3,11,27,16,247,24,29,39,069,34,31,30,191,25*4A
$GPGLL,5616.09238,N,00621.63733,W,132343.00,A,A*7C
$GPGST,132343.00,33,,,,3.7,2.2,6.4*55
$IIHDM,291,M*36
$IIVHW,,T,291,M,00.00,N,00.00,K*6F
$IIDBT,092.9,f,028.3,M,015.4,F*1A
$IIVWR,039,R,12.4,N,06.4,M,023.0,K*59
$IIMTW,011,C*3D
!AIVDM,1,1,,A,13M@auP01CORrP6PFM8GaF3D0L0J,0*54
$GPRMC,132344.00,A,5616.09192,N,00621.63876,W,3.210,241.40,070618,3.50,W,A*35
$GPVTG,241.40,T,244.90,M,3.210,N,5.945,K,A*26
$GPGGA,132344.00,5616.09192,N,00621.63876,W,1,10,0.79,3.2,M,52.8,M,,*42
$GPGSA,A,3,09,25,05,31,23,16,21,27,29,26,,,1.39,0.79,1.14*05
$OCXDR,P,1.0205,B,Barometer*1D
$GPGSV,3,1,11,04,79,146,38,05,15,039,32,09,13,325,38,16,51,288,33*76
$GPGSV,3,2,11,21,52,150,34,23,12,291,28,25,08,119,15,26,79,249,27*7F
$GPGSV,3,3,11,27,16,247,23,29,39,069,31,31,30,191,23*4E
$GPGLL,5616.09192,N,00621.63876,W,132344.00,A,A*76
$GPGST,132344.00,38,,,,3.8,2.3,6.5*56
$IIHDM,291,M*36
$IIVHW,,T,291,M,00.00,N,00.00,K*6F
$IIDBT,093.3,f,028.4,M,015.5,F*17
$IIVWR,039,R,12.3,N,06.3,M,022.9,K*51
$IIMTW,011,C*3D
$GPRMC,132345.00,A,5616.09146,N,00621.64022,W,3.268,241.10,070618,3.50,W,A*39
$GPVTG,241.10,T,244.61,M,3.268,N,6.053,K,A*2F
$GPGGA,132345.00,5616.09146,N,00621.64022,W,1,10,0.79,3.2,M,52.8,M,,*44
$GPGSA,A,3,09,25,05,31,23,16,21,27,29,26,,,1.39,0.79,1.14*05
$GPGSV,3,1,11,04,79,146,37,05,15,039,35,09,13,325,38,16,51,288,28*74
$GPGSV,3,2,11,21,52,150,32,23,12,291,33,25,08,119,15,26,79,249,32*77
$GPGSV,3,3,11,27,16,247,20,29,39,069,34,31,30,191,26*4D
$GPGLL,5616.09146,N,00621.64022,W,132345.00,A,A*70
$GPGST,132345.00,36,,,,3.8,2.2,6.6*5B
$IIHDM,290,M*37
$IIVHW,,T,290,M,00.00,N,00.00,K*6E
$IIDBT,094.5,f,028.8,M,015.7,F*18
$IIVWR,037,R,12.1,N,06.2,M,022.5,K*50
$IIMTW,011,C*3D
$GPRMC,132346.00,A,5616.09098,N,00621.64175,W,3.424,241.97,070618,3.50,W,A*3A
$GPVTG,241.97,T,245.47,M,3.424,N,6.342,K,A*28
$GPGGA,132346.00,5616.09098,N,00621.64175,W,1,10,0.79,3.1,M,52.8,M,,*45
$GPGSA,A,3,09,25,05,31,23,16,21,27,29,26,,,1.39,0.79,1.14*05
$GPGSV,3,1,11,04,79,146,37,05,15,039,36,09,13,325,34,16,51,288,19*79
$GPGSV,3,2,11,21,52,150,32,23,12,291,33,25,08,119,14,26,79,249,31*75
$GPGSV,3,3,11,27,16,247,19,29,39,069,33,31,30,191,26*40
$GPGLL,5616.09098,N,00621.64175,W,132346.00,A,A*72
$GPGST,132346.00,41,,,,3.8,2.3,6.8*57
!AIVDM,1,1,,A,4h2=aHAv9SeGewP852PE?;700UaL,0*00
$IIHDM,289,M*3F
!AIVDM,1,1,,B,B3P8Bf@0:oq3Ur83;KtlWwo5kP06,0*7C
$IIVHW,,T,289,M,00.00,N,00.00,K*66
$IIDBT,095.4,f,029.0,M,015.9,F*1F
$IIVWR,038,R,12.0,N,06.2,M,022.3,K*58
$IIMTW,011,C*3D
$GPRMC,132347.00,A,5616.09060,N,00621.64333,W,3.433,244.72,070618,3.50,W,A*34
$GPVTG,244.72,T,248.22,M,3.433,N,6.358,K,A*25
$GPGGA,132347.00,5616.09060,N,00621.64333,W,1,10,0.79,3.4,M,52.8,M,,*46
$GPGSA,A,3,09,25,05,31,23,16,21,27,29,26,,,1.39,0.79,1.14*05
$GPGSV,3,1,11,04,79,146,37,05,15,039,32,09,13,325,36,16,51,288,26*73
$GPGSV,3,2,11,21,52,150,32,23,12,291,36,25,08,119,13,26,79,249,34*72
$GPGSV,3,3,11,27,16,247,19,29,39,069,32,31,30,191,28*4F
$GPGLL,5616.09060,N,00621.64333,W,132347.00,A,A*74
$GPGST,132347.00,38,,,,3.8,2.3,6.8*58
$IIHDM,289,M*3F
$IIVHW,,T,289,M,00.00,N,00.00,K*66
$IIDBT,096.0,f,029.2,M,016.0,F*10
$IIVWR,037,R,12.0,N,06.1,M,022.3,K*54
$IIMTW,011,C*3D
$GPRMC,132348.00,A,5616.09022,N,00621.64487,W,3.345,246.65,070618,3.50,W,A*37
$GPVTG,246.65,T,250.15,M,3.345,N,6.194,K,A*28
$GPGGA,132348.00,5616.09022,N,00621.64487,W,1,10,0.79,3.4,M,52.8,M,,*47
$GPGSA,A,3,09,25,05,31,23,16,21,27,29,26,,,1.39,0.79,1.14*05
$GPGSV,3,1,11,04,79,146,38,05,15,039,33,09,13,325,37,16,51,288,26*7C
$GPGSV,3,2,11,21,52,150,33,23,12,291,35,25,08,119,14,26,79,249,34*77
$GPGSV,3,3,11,27,16,247,20,29,39,069,35,31,30,191,30*4B
$GPGLL,5616.09022,N,00621.64487,W,132348.00,A,A*75
$GPGST,132348.00,38,,,,3.8,2.3,6.9*56
$IIHDM,288,M*3E
$IIVHW,,T,288,M,00.00,N,00.00,K*67
$IIDBT,096.6,f,029.4,M,016.1,F*11
$IIVWR,037,R,12.3,N,06.3,M,022.8,K*5E
$IIMTW,011,C*3D
$GPRMC,132349.00,A,5616.08967,N,00621.64642,W,3.580,244.13,070618,3.50,W,A*38
$GPVTG,244.13,T,247.63,M,3.580,N,6.631,K,A*2B
$GPGGA,132349.00,5616.08967,N,00621.64642,W,1,10,0.79,3.3,M,52.8,M,,*43
$OCXDR,P,1.0205,B,Barometer*1D
$GPGSA,A,3,09,25,05,31,23,16,21,27,29,26,,,1.39,0.79,1.14*05
$GPGSV,3,1,11,04,79,146,39,05,15,039,35,09,13,325,31,16,51,288,26*7D
$GPGSV,3,2,11,21,52,150,36,23,12,291,36,25,08,119,14,26,79,249,25*71
$GPGSV,3,3,11,27,16,247,21,29,39,069,30,31,30,191,33*4C
$GPGLL,5616.08967,N,00621.64642,W,132349.00,A,A*76
$GPGST,132349.00,39,,,,3.7,2.3,6.9*59
$IIHDM,288,M*3E
$IIVHW,,T,288,M,00.00,N,00.00,K*67
$IIDBT,097.7,f,029.7,M,016.2,F*11
!AIVDM,1,1,,B,4h2=aH@000111wP852PE?;700pM3,0*2E
$IIVWR,036,R,12.5,N,06.4,M,023.2,K*55
$IIMTW,011,C*3D
$GPRMC,132350.00,A,5616.08920,N,00621.64802,W,3.514,246.24,070618,3.50,W,A*32
$GPVTG,246.24,T,249.75,M,3.514,N,6.508,K,A*20
$GPGGA,132350.00,5616.08920,N,00621.64802,W,1,10,0.79,3.2,M,52.8,M,,*43
$GPGSA,A,3,09,25,05,31,23,16,21,27,29,26,,,1.39,0.79,1.14*05
$GPGSV,3,1,11,04,78,145,37,05,15,039,32,09,13,325,33,16,51,288,26*74
$GPGSV,3,2,11,21,52,150,33,23,12,291,28,25,08,119,14,26,79,249,31*7E
$GPGSV,3,3,11,27,16,247,23,29,39,069,34,31,30,191,35*4C
$GPGLL,5616.08920,N,00621.64802,W,132350.00,A,A*77
$GPGST,132350.00,36,,,,3.6,2.3,6.9*5F
$IIHDM,287,M*31
$IIVHW,,T,287,M,00.00,N,00.00,K*68
$IIDBT,098.6,f,030.0,M,016.4,F*16
$IIVWR,038,R,12.3,N,06.3,M,022.8,K*51
$IIMTW,011,C*3D
$GPRMC,132351.00,A,5616.08880,N,00621.64936,W,3.315,246.99,070618,3.50,W,A*3F
$GPVTG,246.99,T,250.50,M,3.315,N,6.139,K,A*28
$GPGGA,132351.00,5616.08880,N,00621.64936,W,1,10,0.79,2.8,M,52.8,M,,*44
$GPGSA,A,3,09,25,05,31,23,16,21,27,29,26,,,1.39,0.79,1.14*05
$GPGSV,3,1,11,04,78,145,38,05,15,038,39,09,13,325,35,16,51,288,27*76
$GPGSV,3,2,11,21,52,150,34,23,12,291,36,25,08,119,13,26,79,249,31*71
$GPGSV,3,3,11,27,16,247,23,29,39,069,31,31,30,191,34*48
$GPGLL,5616.08880,N,00621.64936,W,132351.00,A,A*7B
$GPGST,132351.00,35,,,,3.5,2.3,6.9*5E
$IIHDM,287,M*31
$IIVHW,,T,287,M,00.00,N,00.00,K*68
$IIDBT,099.3,f,030.2,M,016.5,F*11
$IIVWR,037,R,12.8,N,06.6,M,023.7,K*5E
$IIMTW,011,C*3D
$GPRMC,132352.00,A,5616.08831,N,00621.65076,W,3.372,245.17,070618,3.50,W,A*3E
$GPVTG,245.17,T,248.67,M,3.372,N,6.246,K,A*2A
$GPGGA,132352.00,5616.08831,N,00621.65076,W,1,10,0.79,2.4,M,52.8,M,,*4D
$GPGSA,A,3,09,25,05,31,23,16,21,27,29,26,,,1.39,0.79,1.14*05
$GPGSV,3,1,11,04,78,145,38,05,15,038,38,09,13,325,32,16,51,288,26*71
$GPGSV,3,2,11,21,52,150,34,23,12,291,36,25,08,119,14,26,79,249,31*76
$GPGSV,3,3,11,27,16,247,25,29,39,069,25,31,30,191,35*4A
$GPGLL,5616.08831,N,00621.65076,W,132352.00,A,A*7E
$GPGST,132352.00,38,,,,3.4,2.3,6.9*51
!AIVDM,1,1,,B,13M@auP01CORrLrPFLFW`V3V00Se,0*53
$IIHDM,286,M*30
$IIVHW,,T,286,M,00.00,N,00.00,K*69
$IIDBT,100.2,f,030.5,M,016.7,F*14
!AIVDM,1,1,,B,13P<tw1P12ORs7hP<LHCqOwV0<04,0*27
$IIVWR,038,R,12.9,N,06.6,M,023.9,K*5E
$IIMTW,011,C*3D
!AIVDM,1,1,,A,4h2=aH@000=GkwP852PE?;700hO0,0*14
!AIVDM,1,1,,B,13aKd`001`OQdbnPAd6Po0b:05aP,0*0E
$GPRMC,132353.00,A,5616.08787,N,00621.65220,W,3.103,246.06,070618,3.50,W,A*3B
$GPVTG,246.06,T,249.56,M,3.103,N,5.747,K,A*29
$GPGGA,132353.00,5616.08787,N,00621.65220,W,1,10,0.79,2.1,M,52.8,M,,*4A
$GPGSA,A,3,09,25,05,31,23,16,21,27,29,26,,,1.39,0.79,1.14*05
$GPGSV,3,1,11,04,78,145,36,05,15,038,32,09,13,325,35,16,51,288,26*72
$GPGSV,3,2,11,21,52,150,34,23,12,291,37,25,08,119,19,26,79,249,30*7B
$GPGSV,3,3,11,27,16,247,24,29,39,069,31,31,30,191,35*4E
$GPGLL,5616.08787,N,00621.65220,W,132353.00,A,A*7C
$GPGST,132353.00,29,,,,3.3,2.3,6.9*57
$IIHDM,286,M*30
$IIVHW,,T,286,M,00.00,N,00.00,K*69
$IIDBT,100.6,f,030.6,M,016.7,F*13
$IIVWR,037,R,12.8,N,06.4,M,023.0,K*5B
$IIMTW,011,C*3D
$GPRMC,132354.00,A,5616.08747,N,00621.65353,W,3.222,245.90,070618,3.50,W,A*39
$GPVTG,245.90,T,249.40,M,3.222,N,5.968,K,A*21
$GPGGA,132354.00,5616.08747,N,00621.65353,W,1,10,0.79,2.2,M,52.8,M,,*47
$GPGSA,A,3,09,25,05,31,23,16,21,27,29,26,,,1.39,0.79,1.14*05
$OCXDR,P,1.0206,B,Barometer*1E
$GPGSV,3,1,11,04,78,145,38,05,15,038,41,09,13,325,34,16,51,288,26*79
$GPGSV,3,2,11,21,52,150,34,23,12,291,36,25,08,119,20,26,79,249,29*78
$GPGSV,3,3,11,27,16,247,23,29,39,069,40,31,30,191,34*4E
$GPGLL,5616.08747,N,00621.65353,W,132354.00,A,A*72
$GPGST,132354.00,29,,,,3.2,2.2,6.8*51
$IIHDM,285,M*33
$IIVHW,,T,285,M,00.00,N,00.00,K*6A
$IIDBT,101.0,f,030.7,M,016.8,F*1A
$IIVWR,037,R,12.7,N,06.5,M,023.6,K*53
$IIMTW,011,C*3D
$GPRMC,132355.00,A,5616.08705,N,00621.65513,W,3.296,245.49,070618,3.50,W,A*37
$GPVTG,245.49,T,249.0,M,3.296,N,6.104,K,A*1F
$GPGGA,132355.00,5616.08705,N,00621.65513,W,1,10,0.79,2.5,M,52.8,M,,*45
$GPGSA,A,3,09,25,05,31,23,16,21,27,29,26,,,1.39,0.79,1.14*05
$GPGSV,3,1,11,04,78,145,37,05,15,038,34,09,13,324,36,16,51,288,31*71
$GPGSV,3,2,11,21,52,150,34,23,12,291,38,25,08,119,20,26,79,249,33*7D
$GPGSV,3,3,11,27,16,247,22,29,39,069,35,31,30,191,35*4C
$GPGLL,5616.08705,N,00621.65513,W,132355.00,A,A*77
$GPGST,132355.00,29,,,,3.1,2.2,6.7*5C
$IIHDM,285,M*33
$IIVHW,,T,285,M,00.00,N,00.00,K*6A
$IIDBT,101.1,f,030.8,M,016.8,F*14
$IIVWR,038,R,12.4,N,06.4,M,023.1,K*59
$IIMTW,011,C*3D
$GPRMC,132356.00,A,5616.08663,N,00621.65667,W,3.298,246.03,070618,3.50,W,A*36
$GPVTG,246.03,T,249.53,M,3.298,N,6.109,K,A*27
$GPGGA,132356.00,5616.08663,N,00621.65667,W,1,10,0.79,2.6,M,52.8,M,,*44
$GPGSA,A,3,09,25,05,31,23,16,21,27,29,26,,,1.39,0.79,1.14*05
$GPGSV,3,1,11,04,78,145,38,05,15,038,29,09,13,324,32,16,51,288,26*70
$GPGSV,3,2,11,21,52,150,34,23,12,291,34,25,08,119,19,26,79,249,33*7B
$GPGSV,3,3,11,27,16,247,21,29,39,069,32,31,30,191,34*49
$GPGLL,5616.08663,N,00621.65667,W,132356.00,A,A*75
$GPGST,132356.00,32,,,,3.1,2.2,6.7*55
!AIVDM,1,1,,B,4h2=aH@000=GowP852PE?;700d0N,0*1E
$IIHDM,284,M*32
$IIVHW,,T,284,M,00.00,N,00.00,K*6B
$IIDBT,101.3,f,030.8,M,016.8,F*16
$IIVWR,035,R,12.7,N,06.5,M,023.6,K*51
$IIMTW,011,C*3D
$GPRMC,132357.00,A,5616.08624,N,00621.65827,W,3.288,249.32,070618,3.50,W,A*32
$GPVTG,249.32,T,252.83,M,3.288,N,6.090,K,A*2D
$GPGGA,132357.00,5616.08624,N,00621.65827,W,1,10,0.79,2.4,M,52.8,M,,*4E
$GPGSA,A,3,09,25,05,31,23,16,21,27,29,26,,,1.39,0.79,1.14*05
$GPGSV,3,1,11,04,78,145,39,05,15,038,33,09,13,324,33,16,51,288,34*78
$GPGSV,3,2,11,21,52,150,34,23,12,291,37,25,08,119,20,26,79,249,33*72
$GPGSV,3,3,11,27,16,247,21,29,39,069,34,31,30,191,35*4E
$GPGLL,5616.08624,N,00621.65827,W,132357.00,A,A*7D
$GPGST,132357.00,28,,,,3.0,2.2,6.6*5F
$IIHDM,284,M*32
$IIVHW,,T,284,M,00.00,N,00.00,K*6B
$IIDBT,101.5,f,030.9,M,016.9,F*10
$IIVWR,036,R,12.8,N,06.6,M,023.8,K*50
$IIMTW,011,C*3D
$GPRMC,132358.00,A,5616.08596,N,00621.65962,W,3.349,250.60,070618,3.50,W,A*34
$GPVTG,250.60,T,254.11,M,3.349,N,6.203,K,A*2B
$GPGGA,132358.00,5616.08596,N,00621.65962,W,1,10,0.79,2.1,M,52.8,M,,*4E
$GPGSA,A,3,09,25,05,31,23,16,21,27,29,26,,,1.39,0.79,1.14*05
$GPGSV,3,1,11,04,78,145,38,05,15,038,40,09,13,324,33,16,51,288,23*7B
$GPGSV,3,2,11,21,52,150,34,23,12,291,36,25,08,119,20,26,79,249,34*74
$GPGSV,3,3,11,27,16,247,22,29,39,069,25,31,30,191,34*4C
$GPGLL,5616.08596,N,00621.65962,W,132358.00,A,A*78
$GPGST,132358.00,32,,,,3.0,2.2,6.6*5B
$IIHDM,284,M*32
$IIVHW,,T,284,M,00.00,N,00.00,K*6B
$IIDBT,101.7,f,031.0,M,016.9,F*1A
$IIVWR,033,R,12.7,N,06.5,M,023.5,K*54
$IIMTW,011,C*3D
$GPRMC,132359.00,A,5616.08563,N,00621.66114,W,3.542,250.23,070618,3.50,W,A*3F
$GPVTG,250.23,T,253.73,M,3.542,N,6.559,K,A*2A
$GPGGA,132359.00,5616.08563,N,00621.66114,W,1,10,0.79,2.0,M,52.8,M,,*4E
$GPGSA,A,3,09,25,05,31,23,16,21,27,29,26,,,1.39,0.79,1.14*05
$OCXDR,P,1.0205,B,Barometer*1D
$GPGSV,3,1,11,04,78,145,40,05,15,038,36,09,13,324,32,16,51,288,29*7E
$GPGSV,3,2,11,21,52,150,36,23,12,291,29,25,08,119,21,26,79,249,30*7D
$GPGSV,3,3,11,27,16,247,22,29,39,069,40,31,30,191,30*4B
$GPGLL,5616.08563,N,00621.66114,W,132359.00,A,A*79
$GPGST,132359.00,28,,,,3.0,2.2,6.6*51
$IIHDM,283,M*35
$IIVHW,,T,283,M,00.00,N,00.00,K*6C
$IIDBT,101.8,f,031.0,M,016.9,F*15
!AIVDM,1,1,,A,4h2=aHAv9SeGswP852PE?;700pRr,0*3E
$IIVWR,033,R,13.0,N,06.6,M,024.1,K*52
$IIMTW,011,C*3D
$GPRMC,132400.00,A,5616.08527,N,00621.66279,W,3.515,251.25,070618,3.50,W,A*39
$GPVTG,251.25,T,254.75,M,3.515,N,6.510,K,A*23
$GPGGA,132400.00,5616.08527,N,00621.66279,W,1,10,0.79,1.8,M,52.8,M,,*46
$GPGSA,A,3,09,25,05,31,23,16,21,27,29,26,,,1.39,0.79,1.14*05
$GPGSV,3,1,11,04,78,145,38,05,15,038,33,09,13,324,34,16,51,288,28*73
$GPGSV,3,2,11,21,52,150,33,23,12,291,33,25,08,119,21,26,79,249,30*73
$GPGSV,3,3,11,27,16,247,22,29,39,069,36,31,30,191,34*4E
$GPGLL,5616.08527,N,00621.66279,W,132400.00,A,A*7A
$GPGST,132400.00,27,,,,2.9,2.2,6.6*5D
$IIHDM,283,M*35
$IIVHW,,T,283,M,00.00,N,00.00,K*6C
$IIDBT,101.8,f,031.0,M,016.9,F*15
$IIVWR,035,R,12.9,N,06.6,M,023.9,K*53
$IIMTW,011,C*3D
$GPRMC,132401.00,A,5616.08496,N,00621.66452,W,3.613,251.67,070618,3.50,W,A*3F
$GPVTG,251.67,T,255.17,M,3.613,N,6.691,K,A*2F
$GPGGA,132401.00,5616.08496,N,00621.66452,W,1,10,0.79,1.9,M,52.8,M,,*42
$GPGSA,A,3,09,25,05,31,23,16,21,27,29,26,,,1.39,0.79,1.14*05
$GPGSV,3,1,11,04,78,145,38,05,15,038,36,09,13,324,30,16,51,288,28*72
$GPGSV,3,2,11,21,52,150,35,23,12,291,36,25,08,119,21,26,79,249,34*74
$GPGSV,3,3,11,27,16,247,21,29,39,069,33,31,30,191,34*48
$GPGLL,5616.08496,N,00621.66452,W,132401.00,A,A*7F
$GPGST,132401.00,27,,,,2.9,2.2,6.5*5F
$IIHDM,282,M*34
$IIVHW,,T,282,M,00.00,N,00.00,K*6D
$IIDBT,101.8,f,031.0,M,016.9,F*15
$IIVWR,035,R,13.0,N,06.6,M,024.1,K*54
$IIMTW,011,C*3D
!AIVDM,1,1,,B,B3P82p@02Ope9L83N62h?wPUCP06,0*62
$GPRMC,132402.00,A,5616.08465,N,00621.66629,W,3.418,251.96,070618,3.50,W,A*39
$GPVTG,251.96,T,255.47,M,3.418,N,6.330,K,A*23
$GPGGA,132402.00,5616.08465,N,00621.66629,W,1,10,0.79,2.1,M,52.8,M,,*48
$GPGSA,A,3,09,25,05,31,23,16,21,27,29,26,,,1.39,0.79,1.14*05
$GPGSV,3,1,11,04,78,145,38,05,15,038,34,09,13,324,33,16,51,288,33*79
$GPGSV,3,2,11,21,52,150,34,23,12,291,37,25,08,119,19,26,79,249,36*7D
$GPGSV,3,3,11,27,16,247,21,29,39,069,38,31,30,191,35*42
$GPGLL,5616.08465,N,00621.66629,W,132402.00,A,A*7E
$GPGST,132402.00,27,,,,2.8,2.1,6.3*58
$IIHDM,282,M*34
$IIVHW,,T,282,M,00.00,N,00.00,K*6D
$IIDBT,101.8,f,031.0,M,016.9,F*15
$IIVWR,034,R,13.3,N,06.8,M,024.6,K*5F
$IIMTW,011,C*3D
!AIVDM,1,1,,B,4h2=aH@000=H1wP852PE?;700d0N,0*4F
$GPRMC,132403.00,A,5616.08430,N,00621.66793,W,3.342,250.61,070618,3.50,W,A*39
$GPVTG,250.61,T,254.11,M,3.342,N,6.189,K,A*20
$GPGGA,132403.00,5616.08430,N,00621.66793,W,1,10,0.79,1.9,M,52.8,M,,*42
$GPGSA,A,3,09,25,05,31,23,16,21,27,29,26,,,1.39,0.79,1.14*05
$GPGSV,3,1,11,04,78,145,36,05,15,038,30,09,13,324,35,16,51,288,27*70
$GPGSV,3,2,11,21,52,150,34,23,12,291,37,25,08,119,17,26,79,249,29*7D
!AIVDM,1,1,,B,B3NloD00@?pg3g`37fnj?wQ5oP06,0*72
$GPGSV,3,3,11,27,16,247,20,29,39,069,33,31,30,191,35*48
$GPGLL,5616.08430,N,00621.66793,W,132403.00,A,A*7F
$GPGST,132403.00,31,,,,2.8,2.2,6.3*5D
!AIVDM,1,1,,A,13aKd`001bOQdi@PAe:ho@bP05aP,0*05
$IIHDM,282,M*34
!AIVDM,1,1,,A,13P<tw1P11ORsBrP<L?Srwv40822,0*77
$IIVHW,,T,282,M,00.00,N,00.00,K*6D
$IIDBT,101.8,f,031.0,M,016.9,F*15
!AIVDM,1,1,,A,13M@auP01BORrI@PFKHoVV240827,0*39
$IIVWR,034,R,13.0,N,06.6,M,024.0,K*54
$IIMTW,011,C*3D
$GPRMC,132404.00,A,5616.08399,N,00621.66946,W,3.344,250.77,070618,3.50,W,A*3D
$GPVTG,250.77,T,254.27,M,3.344,N,6.194,K,A*28
$GPGGA,132404.00,5616.08399,N,00621.66946,W,1,10,0.79,1.8,M,52.8,M,,*46
$GPGSA,A,3,09,25,05,31,23,16,21,27,29,26,,,1.39,0.79,1.14*05
$OCXDR,P,1.0205,B,Barometer*1D
$GPGSV,3,1,11,04,78,145,38,05,15,038,39,09,13,324,32,16,51,288,28*7F
$GPGSV,3,2,11,21,52,150,34,23,12,291,36,25,08,119,17,26,79,249,29*7C
$GPGSV,3,3,11,27,16,247,20,29,39,069,33,31,30,191,34*49
$GPGLL,5616.08399,N,00621.66946,W,132404.00,A,A*7A
$GPGST,132404.00,30,,,,2.8,2.1,6.3*58
$IIHDM,281,M*37
$IIVHW,,T,281,M,00.00,N,00.00,K*6E
$IIDBT,101.8,f,031.0,M,016.9,F*15
!AIVDM,1,1,,A,B3M@G:0007pct583f5:bgwR5oP06,0*3C
$IIVWR,036,R,13.3,N,06.8,M,024.6,K*5D
$IIMTW,011,C*3D
$GPRMC,132405.00,A,5616.08367,N,00621.67117,W,3.569,250.72,070618,3.50,W,A*3C
$GPVTG,250.72,T,254.22,M,3.569,N,6.610,K,A*2A
$GPGGA,132405.00,5616.08367,N,00621.67117,W,1,10,0.79,1.9,M,52.8,M,,*4A
$GPGSA,A,3,09,25,05,31,23,16,21,27,29,26,,,1.39,0.79,1.14*05
$GPGSV,3,1,11,04,78,145,38,05,15,038,30,09,13,324,34,16,51,288,28*70
$GPGSV,3,2,11,21,52,150,34,23,12,291,36,25,08,119,16,26,79,249,29*7D
$GPGSV,3,3,11,27,16,247,22,29,39,069,33,31,30,191,34*4B
$GPGLL,5616.08367,N,00621.67117,W,132405.00,A,A*77
$GPGST,132405.00,31,,,,2.8,2.1,6.4*5F
$IIHDM,281,M*37
$IIVHW,,T,281,M,00.00,N,00.00,K*6E
$IIDBT,101.8,f,031.0,M,016.9,F*15
$IIVWR,038,R,13.5,N,06.9,M,025.0,K*53
$IIMTW,011,C*3D
$GPRMC,132406.00,A,5616.08329,N,00621.67280,W,3.478,248.41,070618,3.50,W,A*30
$GPVTG,248.41,T,251.91,M,3.478,N,6.442,K,A*2A
$GPGGA,132406.00,5616.08329,N,00621.67280,W,1,10,0.79,1.9,M,52.8,M,,*4E
$GPGSA,A,3,09,25,05,31,23,16,21,27,29,26,,,1.39,0.79,1.14*05
$GPGSV,3,1,11,04,78,145,37,05,15,038,33,09,13,324,36,16,51,288,28*7E
$GPGSV,3,2,11,21,52,150,34,23,12,291,36,25,08,119,16,26,79,249,31*74
$GPGSV,3,3,11,27,16,247,22,29,39,069,33,31,30,191,31*4E
$GPGLL,5616.08329,N,00621.67280,W,132406.00,A,A*73
$GPGST,132406.00,30,,,,2.8,2.2,6.4*5E
!AIVDM,1,1,,A,4h2=aH@000=H6wP852PE?;700d0N,0*4B
$IIHDM,281,M*37
$IIVHW,,T,281,M,00.00,N,00.00,K*6E
$IIDBT,101.8,f,031.0,M,016.9,F*15
$IIVWR,037,R,13.2,N,06.8,M,024.5,K*5E
$IIMTW,011,C*3D
$GPRMC,132407.00,A,5616.08292,N,00621.67443,W,3.518,247.51,070618,3.50,W,A*30
$GPVTG,247.51,T,251.01,M,3.518,N,6.515,K,A*29
$GPGGA,132407.00,5616.08292,N,00621.67443,W,1,10,0.79,1.8,M,52.8,M,,*46
$GPGSA,A,3,09,25,05,31,23,16,21,27,29,26,,,1.39,0.79,1.14*05
$GPGSV,3,1,11,04,78,145,38,05,15,038,33,09,13,324,38,16,51,288,28*7F
$GPGSV,3,2,11,21,52,149,33,23,12,291,33,25,08,119,17,26,79,249,26*79
$GPGSV,3,3,11,27,16,247,19,29,39,069,30,31,30,191,30*44
$GPGLL,5616.08292,N,00621.67443,W,132407.00,A,A*7A
$GPGST,132407.00,33,,,,2.8,2.2,6.5*5D
$IIHDM,280,M*36
$IIVHW,,T,280,M,00.00,N,00.00,K*6F
$IIDBT,101.8,f,031.0,M,016.9,F*15
$IIVWR,037,R,13.2,N,06.8,M,024.5,K*5E
$IIMTW,011,C*3D
$GPRMC,132408.00,A,5616.08256,N,00621.67596,W,3.531,246.80,070618,3.50,W,A*38
$GPVTG,246.80,T,250.30,M,3.531,N,6.540,K,A*2C
$GPGGA,132408.00,5616.08256,N,00621.67596,W,1,10,0.79,1.9,M,52.8,M,,*49
$GPGSA,A,3,09,25,05,31,23,16,21,27,29,26,,,1.39,0.79,1.14*05
$GPGSV,3,1,11,04,78,145,38,05,15,038,36,09,13,324,36,16,51,288,28*74
$GPGSV,3,2,11,21,52,149,32,23,12,291,34,25,08,119,18,26,79,249,28*7E
$GPGSV,3,3,11,27,16,247,15,29,39,069,36,31,30,191,28*47
$GPGLL,5616.08256,N,00621.67596,W,132408.00,A,A*74
$GPGST,132408.00,37,,,,2.8,2.2,6.6*55
$IIHDM,280,M*36
$IIVHW,,T,280,M,00.00,N,00.00,K*6F
$IIDBT,101.8,f,031.0,M,016.9,F*15
$IIVWR,039,R,13.1,N,06.7,M,024.3,K*5A
$IIMTW,011,C*3D
$GPRMC,132409.00,A,5616.08216,N,00621.67754,W,3.652,244.35,070618,3.50,W,A*3B
$GPVTG,244.35,T,247.86,M,3.652,N,6.764,K,A*29
$GPGGA,132409.00,5616.08216,N,00621.67754,W,1,10,0.79,1.9,M,52.8,M,,*40
$GPGSA,A,3,09,25,05,31,23,16,21,27,29,26,,,1.39,0.79,1.14*05
$OCXDR,P,1.0205,B,Barometer*1D
$GPGSV,3,1,11,04,78,145,37,05,15,038,37,09,13,324,38,16,51,288,28*74
$GPGSV,3,2,11,21,52,149,32,23,12,290,30,25,08,119,16,26,79,249,29*74
$GPGSV,3,3,11,27,16,247,17,29,39,069,36,31,30,191,26*4B
$GPGLL,5616.08216,N,00621.67754,W,132409.00,A,A*7D
$GPGST,132409.00,35,,,,2.9,2.2,6.6*57
$IIHDM,280,M*36
$IIVHW,,T,280,M,00.00,N,00.00,K*6F
$IIDBT,101.8,f,031.0,M,016.9,F*15
!AIVDM,1,1,,B,4h2=aH@000111wP852PE?;700d0N,0*3A
$IIVWR,039,R,13.0,N,06.7,M,024.1,K*59
$IIMTW,011,C*3D
$GPRMC,132410.00,A,5616.08170,N,00621.67913,W,3.779,243.36,070618,3.50,W,A*31
$GPVTG,243.36,T,246.86,M,3.779,N,6.999,K,A*28
$GPGGA,132410.00,5616.08170,N,00621.67913,W,1,10,0.79,1.8,M,52.8,M,,*47
$GPGSA,A,3,09,25,05,31,23,16,21,27,29,26,,,1.39,0.79,1.14*05
$GPGSV,3,1,11,04,78,145,39,05,15,038,37,09,13,324,36,16,51,288,32*7F
$GPGSV,3,2,11,21,52,149,33,23,12,290,30,25,08,119,15,26,79,249,32*7C
$GPGSV,3,3,11,27,16,247,20,29,39,069,34,31,30,191,24*4F
$GPGLL,5616.08170,N,00621.67913,W,132410.00,A,A*7B
$GPGST,132410.00,36,,,,2.9,2.2,6.7*5D
$IIHDM,279,M*30
$IIVHW,,T,279,M,00.00,N,00.00,K*69
$IIDBT,102.0,f,031.1,M,017.0,F*17
$IIVWR,039,R,13.1,N,06.7,M,024.2,K*5B
$IIMTW,011,C*3D
$GPRMC,132411.00,A,5616.08128,N,00621.68080,W,3.744,243.79,070618,3.50,W,A*34
$GPVTG,243.79,T,247.29,M,3.744,N,6.934,K,A*2E
$GPGGA,132411.00,5616.08128,N,00621.68080,W,1,10,0.79,1.9,M,52.8,M,,*46
$GPGSA,A,3,09,25,05,31,23,16,21,27,29,26,,,1.39,0.79,1.14*05
$GPGSV,3,1,11,04,78,145,38,05,15,038,35,09,13,324,36,16,51,288,26*79
$GPGSV,3,2,11,21,52,149,33,23,12,290,28,25,07,119,14,26,79,249,31*78
$GPGSV,3,3,11,27,16,247,20,29,39,069,30,31,30,191,30*4E
$GPGLL,5616.08128,N,00621.68080,W,132411.00,A,A*7B
$GPGST,132411.00,40,,,,3.0,2.2,6.8*5A
$IIHDM,279,M*30
$IIVHW,,T,279,M,00.00,N,00.00,K*69
$IIDBT,102.3,f,031.2,M,017.0,F*17
$IIVWR,039,R,13.1,N,06.7,M,024.2,K*5B
$IIMTW,011,C*3D
!AIVDM,1,1,,A,Dh2=aHAsLN?a8pN00:IN000,2*4B
!AIVDM,1,1,,B,13P<tw1P14ORsKpP<L8Sr?vD00SH,0*56
$GPRMC,132412.00,A,5616.08088,N,00621.68262,W,3.981,245.36,070618,3.50,W,A*38
$GPVTG,245.36,T,248.86,M,3.981,N,7.373,K,A*26
$GPGGA,132412.00,5616.08088,N,00621.68262,W,1,10,0.79,2.1,M,52.8,M,,*4B
$GPGSA,A,3,09,25,05,31,23,16,21,27,29,26,,,1.38,0.79,1.14*04
$GPGSV,3,1,11,04,78,145,38,05,15,038,35,09,13,324,36,16,51,288,27*78
$GPGSV,3,2,11,21,52,149,34,23,12,290,33,25,07,119,15,26,79,246,31*7B
$GPGSV,3,3,11,27,16,247,19,29,39,069,35,31,30,191,33*42
$GPGLL,5616.08088,N,00621.68262,W,132412.00,A,A*7D
$GPGST,132412.00,39,,,,3.0,2.2,6.8*57
!AIVDM,1,1,,B,13aKd`001aOQdo:PAf8hp@`j05aP,0*5F
$IIHDM,278,M*31
$IIVHW,,T,278,M,00.00,N,00.00,K*68
$IIDBT,102.6,f,031.2,M,017.1,F*13
$IIVWR,039,R,13.2,N,06.8,M,024.5,K*50
$IIMTW,011,C*3D
!AIVDM,1,1,,A,4h2=aH@000=HIwP852PE?;700h7T,0*25
$GPRMC,132413.00,A,5616.08049,N,00621.68432,W,3.866,246.09,070618,3.50,W,A*30
$GPVTG,246.09,T,249.59,M,3.866,N,7.160,K,A*22
$GPGGA,132413.00,5616.08049,N,00621.68432,W,1,10,0.79,1.9,M,52.8,M,,*4F
$GPGSA,A,3,09,25,05,31,23,16,21,27,29,26,,,1.38,0.79,1.14*04
$GPGSV,3,1,11,04,78,145,38,05,15,038,38,09,13,324,38,16,51,288,30*7D
$GPGSV,3,2,11,21,52,149,34,23,12,290,32,25,07,119,18,26,79,246,31*77
$GPGSV,3,3,11,27,17,247,19,29,39,069,31,31,30,191,32*46
$GPGLL,5616.08049,N,00621.68432,W,132413.00,A,A*72
$GPGST,132413.00,32,,,,3.0,2.2,6.9*5C
!AIVDM,1,1,,B,13M@auP01BORrF6PFJQoWn4H05aP,0*21
$IIHDM,278,M*31
$IIVHW,,T,278,M,00.00,N,00.00,K*68
$IIDBT,103.4,f,031.5,M,017.2,F*14
$IIVWR,039,R,13.5,N,06.9,M,025.1,K*53
$IIMTW,011,C*3D
$OCXDR,P,1.0205,B,Barometer*1D
$GPRMC,132414.00,A,5616.08009,N,00621.68614,W,3.952,246.92,070618,3.50,W,A*31
$GPVTG,246.92,T,250.42,M,3.952,N,7.320,K,A*22
$GPGGA,132414.00,5616.08009,N,00621.68614,W,1,10,0.79,2.0,M,52.8,M,,*40
$GPGSA,A,3,09,25,05,31,23,16,21,27,29,26,,,1.38,0.79,1.14*04
$GPGSV,3,1,11,04,78,145,37,05,15,038,28,09,13,324,33,16,51,288,31*79
$GPGSV,3,2,11,21,52,149,35,23,12,290,33,25,07,119,20,26,79,246,30*7D
$GPGSV,3,3,11,27,17,247,18,29,39,069,35,31,30,191,28*48
$GPGLL,5616.08009,N,00621.68614,W,132414.00,A,A*77
$GPGST,132414.00,32,,,,3.0,2.3,7.0*52
$IIHDM,278,M*31
$IIVHW,,T,278,M,00.00,N,00.00,K*68
$IIDBT,103.5,f,031.5,M,017.2,F*15
$IIVWR,038,R,13.5,N,06.9,M,025.0,K*53
$IIMTW,011,C*3D
$GPRMC,132415.00,A,5616.07968,N,00621.68792,W,3.776,246.62,070618,3.50,W,A*39
$GPVTG,246.62,T,250.12,M,3.776,N,6.992,K,A*22
$GPGGA,132415.00,5616.07968,N,00621.68792,W,1,10,0.79,2.1,M,52.8,M,,*4E
$GPGSA,A,3,09,25,05,31,23,16,21,27,29,26,,,1.38,0.79,1.14*04
$GPGSV,3,1,11,04,78,145,37,05,15,038,29,09,13,324,36,16,51,288,32*7E
$GPGSV,3,2,11,21,52,149,34,23,12,290,35,25,07,119,21,26,79,246,30*7B
$GPGSV,3,3,11,27,17,247,17,29,39,069,37,31,30,191,33*4F
$GPGLL,5616.07968,N,00621.68792,W,132415.00,A,A*78
$GPGST,132415.00,30,,,,3.0,2.3,6.9*59
$IIHDM,277,M*3E
$IIVHW,,T,277,M,00.00,N,00.00,K*67
$IIDBT,104.1,f,031.7,M,017.3,F*15
$IIVWR,038,R,13.6,N,07.0,M,025.2,K*5A
$IIMTW,011,C*3D
$GPRMC,132416.00,A,5616.07927,N,00621.68967,W,3.641,245.84,070618,3.50,W,A*3B
$GPVTG,245.84,T,249.34,M,3.641,N,6.744,K,A*25
$GPGGA,132416.00,5616.07927,N,00621.68967,W,1,10,0.79,2.3,M,52.8,M,,*40
$GPGSA,A,3,09,25,05,31,23,16,21,27,29,26,,,1.38,0.79,1.14*04
$GPGSV,3,1,11,04,78,145,37,05,15,038,28,09,13,324,35,16,51,288,26*79
$GPGSV,3,2,11,21,52,149,37,23,12,290,35,25,07,119,21,26,79,246,30*78
$GPGSV,3,3,11,27,17,247,17,29,39,069,35,31,30,191,28*47
$GPGLL,5616.07927,N,00621.68967,W,132416.00,A,A*74
$GPGST,132416.00,31,,,,3.1,2.3,7.0*52
!AIVDM,1,1,,B,4h2=aH@000111wP852PE?;700PS:,0*19
$IIHDM,277,M*3E
$IIVHW,,T,277,M,00.00,N,00.00,K*67
$IIDBT,104.4,f,031.8,M,017.4,F*18
$IIVWR,037,R,13.4,N,06.9,M,024.9,K*55
$IIMTW,011,C*3D
$GPRMC,132417.00,A,5616.07874,N,00621.69135,W,3.684,244.52,070618,3.50,W,A*30
$GPVTG,244.52,T,248.02,M,3.684,N,6.823,K,A*2C
$GPGGA,132417.00,5616.07874,N,00621.69135,W,1,10,0.79,1.9,M,52.8,M,,*41
$GPGSA,A,3,09,25,05,31,23,16,21,27,29,26,,,1.38,0.79,1.14*04
$GPGSV,3,1,11,04,78,145,39,05,15,038,38,09,13,324,38,16,51,288,31*7D
$GPGSV,3,2,11,21,52,149,34,23,12,290,36,25,07,119,17,26,79,246,30*7D
$GPGSV,3,3,11,27,17,247,18,29,39,069,32,31,30,191,35*43
$GPGLL,5616.07874,N,00621.69135,W,132417.00,A,A*7C
$GPGST,132417.00,32,,,,3.0,2.3,7.0*51
$IIHDM,276,M*3F
$IIVHW,,T,276,M,00.00,N,00.00,K*66
$IIDBT,104.8,f,031.9,M,017.4,F*15
$IIVWR,037,R,13.9,N,07.1,M,025.7,K*5E
$IIMTW,011,C*3D
$GPRMC,132418.00,A,5616.07830,N,00621.69307,W,3.827,243.89,070618,3.50,W,A*3A
$GPVTG,243.89,T,247.39,M,3.827,N,7.087,K,A*2A
$GPGGA,132418.00,5616.07830,N,00621.69307,W,1,10,0.79,2.2,M,52.8,M,,*45
$GPGSA,A,3,09,25,05,31,23,16,21,27,29,26,,,1.38,0.79,1.14*04
$GPGSV,3,1,11,04,78,145,37,05,15,038,33,09,13,324,31,16,51,288,25*74
$GPGSV,3,2,11,21,52,149,34,23,12,290,36,25,07,119,14,26,79,246,31*7F
$GPGSV,3,3,11,27,17,247,22,29,39,069,32,31,30,191,34*4B
$GPGLL,5616.07830,N,00621.69307,W,132418.00,A,A*70
$GPGST,132418.00,37,,,,3.0,2.4,7.0*5C
$IIHDM,276,M*3F
$IIVHW,,T,276,M,00.00,N,00.00,K*66
$IIDBT,104.9,f,031.9,M,017.4,F*14
$IIVWR,038,R,13.4,N,06.9,M,024.9,K*5A
$IIMTW,011,C*3D
$GPRMC,132419.00,A,5616.07783,N,00621.69467,W,3.690,245.44,070618,3.50,W,A*38
$GPVTG,245.44,T,248.94,M,3.690,N,6.835,K,A*27
$GPGGA,132419.00,5616.07783,N,00621.69467,W,1,10,0.79,1.9,M,52.8,M,,*4A
$OCXDR,P,1.0206,B,Barometer*1E
$GPGSA,A,3,09,25,05,31,23,16,21,27,29,26,,,1.38,0.79,1.14*04
$GPGSV,3,1,11,04,78,145,39,05,15,038,34,09,13,324,34,16,51,288,30*7C
$GPGSV,3,2,11,21,52,149,35,23,12,290,36,25,07,119,12,26,79,246,31*78
$GPGSV,3,3,11,27,17,247,22,29,39,069,33,31,30,191,34*4A
$GPGLL,5616.07783,N,00621.69467,W,132419.00,A,A*77
$GPGST,132419.00,37,,,,3.0,2.4,7.0*5D
$IIHDM,276,M*3F
$IIVHW,,T,276,M,00.00,N,00.00,K*66
$IIDBT,105.2,f,032.0,M,017.5,F*15
!AIVDM,1,1,,A,4h2=aHAv9SeHCwP852PE?;700PS:,0*68
$IIVWR,035,R,13.6,N,07.0,M,025.2,K*57
$IIMTW,011,C*3D
$GPRMC,132420.00,A,5616.07748,N,00621.69639,W,3.728,246.97,070618,3.50,W,A*33
$GPVTG,246.97,T,250.47,M,3.728,N,6.904,K,A*2C
$GPGGA,132420.00,5616.07748,N,00621.69639,W,1,10,0.79,2.0,M,52.8,M,,*44
$GPGSA,A,3,09,25,05,31,23,16,21,27,29,26,,,1.38,0.79,1.14*04
$GPGSV,3,1,11,04,78,145,37,05,15,038,36,09,13,324,34,16,51,288,34*74
$GPGSV,3,2,11,21,52,149,35,23,12,290,37,25,07,119,11,26,79,246,35*7E
$GPGSV,3,3,11,27,17,247,22,29,39,069,33,31,30,191,34*4A
$GPGLL,5616.07748,N,00621.69639,W,132420.00,A,A*73
$GPGST,132420.00,35,,,,2.9,2.3,6.8*53
$IIHDM,276,M*3F
$IIVHW,,T,276,M,00.00,N,00.00,K*66
$IIDBT,105.4,f,032.1,M,017.5,F*12
$IIVWR,038,R,13.3,N,06.8,M,024.7,K*52
$IIMTW,011,C*3D
$GPRMC,132421.00,A,5616.07718,N,00621.69810,W,3.704,248.92,070618,3.50,W,A*37
$GPVTG,248.92,T,252.42,M,3.704,N,6.859,K,A*27
$GPGGA,132421.00,5616.07718,N,00621.69810,W,1,10,0.79,2.3,M,52.8,M,,*46
$GPGSA,A,3,09,25,05,31,23,16,21,27,29,26,,,1.38,0.79,1.14*04
$GPGSV,3,1,11,04,78,145,38,05,15,038,34,09,13,324,34,16,51,288,29*75
$GPGSV,3,2,11,21,52,149,34,23,12,290,30,25,07,119,11,26,79,246,35*78
$GPGSV,3,3,11,27,17,247,21,29,39,069,36,31,30,191,34*4C
$GPGLL,5616.07718,N,00621.69810,W,132421.00,A,A*72
$GPGST,132421.00,37,,,,2.9,2.3,6.7*5F
$IIHDM,275,M*3C
$IIVHW,,T,275,M,00.00,N,00.00,K*65
$IIDBT,105.6,f,032.1,M,017.6,F*13
$IIVWR,033,R,13.3,N,06.8,M,024.6,K*58
$IIMTW,011,C*3D
$GPRMC,132422.00,A,5616.07689,N,00621.69959,W,3.746,250.27,070618,3.50,W,A*30
$GPVTG,250.27,T,253.77,M,3.746,N,6.937,K,A*28
$GPGGA,132422.00,5616.07689,N,00621.69959,W,1,10,0.79,1.9,M,52.8,M,,*49
$GPGSA,A,3,09,25,05,31,23,16,21,27,29,26,,,1.38,0.79,1.14*04
$GPGSV,3,1,11,04,78,145,38,05,15,038,39,09,13,324,36,16,51,288,28*7B
!AIVDM,1,1,,A,13P<tw1P11ORsV8P<L13p?vb0<04,0*5B
$GPGSV,3,2,11,21,52,149,34,23,12,290,37,25,07,119,11,26,79,246,31*7B
$GPGSV,3,3,11,27,17,247,21,29,39,069,38,31,30,191,32*44
$GPGLL,5616.07689,N,00621.69959,W,132422.00,A,A*74
$GPGST,132422.00,36,,,,2.9,2.2,6.6*5D
$IIHDM,275,M*3C
$IIVHW,,T,275,M,00.00,N,00.00,K*65
$IIDBT,105.9,f,032.2,M,017.6,F*1F
$IIVWR,035,R,13.4,N,06.9,M,024.8,K*56
$IIMTW,011,C*3D
!AIVDM,1,1,,A,13aKd`001bOQdv>PAgCPo0a600Rt,0*20
!AIVDM,1,1,,B,4h2=aH@000=HEwP852PE?;700UaP,0*45
!AIVDM,1,1,,A,13M@auP01AORrBPPFIbWaF4d08=O,0*37
$GPRMC,132423.00,A,5616.07651,N,00621.70134,W,3.832,250.01,070618,3.50,W,A*37
$GPVTG,250.01,T,253.51,M,3.832,N,7.096,K,A*27
$GPGGA,132423.00,5616.07651,N,00621.70134,W,1,10,0.79,2.0,M,52.8,M,,*4C
$GPGSA,A,3,09,25,05,31,23,16,21,27,29,26,,,1.38,0.79,1.14*04
$GPGSV,3,1,11,04,78,145,38,05,15,038,35,09,13,324,33,16,51,288,27*7D
$GPGSV,3,2,11,21,52,149,34,23,12,290,33,25,07,119,11,26,79,246,32*7C
$GPGSV,3,3,11,27,17,247,21,29,39,069,28,31,30,191,33*44
$GPGLL,5616.07651,N,00621.70134,W,132423.00,A,A*7B
$GPGST,132423.00,38,,,,2.9,2.2,6.6*52
$IIHDM,275,M*3C
$IIVHW,,T,275,M,00.00,N,00.00,K*65
$IIDBT,105.9,f,032.3,M,017.6,F*1E
$IIVWR,037,R,13.1,N,06.7,M,024.2,K*55
$IIMTW,011,C*3D
!AIVDM,1,1,,B,B3M@fnh00wpcto`3fC6BcwcUoP06,0*5F
$GPRMC,132424.00,A,5616.07617,N,00621.70318,W,3.834,251.75,070618,3.50,W,A*3A
$GPVTG,251.75,T,255.25,M,3.834,N,7.100,K,A*28
$GPGGA,132424.00,5616.07617,N,00621.70318,W,1,10,0.79,2.0,M,52.8,M,,*45
$GPGSA,A,3,09,25,05,31,23,16,21,27,29,26,,,1.38,0.79,1.14*04
$OCXDR,P,1.0206,B,Barometer*1E
$GPGSV,3,1,11,04,78,145,38,05,15,038,36,09,13,324,36,16,51,288,19*76
$GPGSV,3,2,11,21,52,149,34,23,12,290,36,25,07,119,11,26,79,246,32*79
$GPGSV,3,3,11,27,17,247,20,29,39,069,32,31,30,191,34*49
$GPGLL,5616.07617,N,00621.70318,W,132424.00,A,A*72
$GPGST,132424.00,41,,,,2.8,2.3,6.7*5A
$IIHDM,275,M*3C
$IIVHW,,T,275,M,00.00,N,00.00,K*65
$IIDBT,106.0,f,032.3,M,017.6,F*14
$IIVWR,035,R,13.8,N,07.1,M,025.6,K*5C
$IIMTW,011,C*3D
$GPRMC,132425.00,A,5616.07582,N,00621.70469,W,3.683,250.32,070618,3.50,W,A*35
$GPVTG,250.32,T,253.83,M,3.683,N,6.820,K,A*28
$GPGGA,132425.00,5616.07582,N,00621.70469,W,1,10,0.93,1.6,M,52.8,M,,*4B
$GPGSA,A,3,09,25,05,31,23,16,21,27,29,26,,,1.70,0.93,1.43*0E
$GPGSV,3,1,11,04,78,145,36,05,15,038,39,09,13,324,32,16,51,288,27*7E
$GPGSV,3,2,11,21,52,149,34,23,12,290,36,25,07,119,22,26,79,246,27*7D
$GPGSV,3,3,11,27,17,247,21,29,39,069,28,31,30,191,34*43
$GPGLL,5616.07582,N,00621.70469,W,132425.00,A,A*7D
$GPGST,132425.00,26,,,,2.8,2.3,6.7*5A
$IIHDM,274,M*3D
$IIVHW,,T,274,M,00.00,N,00.00,K*64
$IIDBT,106.1,f,032.3,M,017.6,F*15
$IIVWR,036,R,13.7,N,07.0,M,025.3,K*54
$IIMTW,011,C*3D
$GPRMC,132426.00,A,5616.07541,N,00621.70635,W,3.729,249.25,070618,3.50,W,A*3D
$GPVTG,249.25,T,252.75,M,3.729,N,6.906,K,A*2A
$GPGGA,132426.00,5616.07541,N,00621.70635,W,1,10,0.93,1.5,M,52.8,M,,*4F
$GPGSA,A,3,09,25,05,31,23,16,21,27,29,26,,,1.70,0.93,1.43*0E
$GPGSV,3,1,11,04,78,145,37,05,15,038,33,09,13,324,31,16,51,288,22*73
$GPGSV,3,2,11,21,52,149,35,23,12,290,36,25,07,119,20,26,79,246,28*71
$GPGSV,3,3,11,27,17,247,23,29,39,069,35,31,30,191,35*4C
$GPGLL,5616.07541,N,00621.70635,W,132426.00,A,A*7A
$GPGST,132426.00,26,,,,2.8,2.3,6.8*56
!AIVDM,1,1,,A,4h2=aH@000=HJwP852PE?;700UaP,0*49
!AIVDM,1,1,,A,B39bG<000Gpcn6`3cpbNCwe5oP06,0*7A
$IIHDM,274,M*3D
$IIVHW,,T,274,M,00.00,N,00.00,K*64
$IIDBT,106.3,f,032.4,M,017.7,F*11
$IIVWR,036,R,13.5,N,06.9,M,025.1,K*5C
$IIMTW,011,C*3D
$GPRMC,132427.00,A,5616.07500,N,00621.70810,W,3.728,249.22,070618,3.50,W,A*36
$GPVTG,249.22,T,252.72,M,3.728,N,6.904,K,A*29
$GPGGA,132427.00,5616.07500,N,00621.70810,W,1,10,0.93,1.4,M,52.8,M,,*43
$GPGSA,A,3,09,25,05,31,23,16,21,27,29,26,,,1.70,0.93,1.43*0E
$GPGSV,3,1,11,04,78,145,37,05,15,038,29,09,13,324,34,16,51,288,23*7C
$GPGSV,3,2,11,21,52,149,36,23,12,290,36,25,07,119,17,26,79,246,29*77
$GPGSV,3,3,11,27,17,247,25,29,39,069,35,31,30,191,35*4A
$GPGLL,5616.07500,N,00621.70810,W,132427.00,A,A*77
$GPGST,132427.00,24,,,,2.8,2.4,6.8*52
$IIHDM,274,M*3D
$IIVHW,,T,274,M,00.00,N,00.00,K*64
$IIDBT,106.5,f,032.4,M,017.7,F*17
$IIVWR,038,R,13.7,N,07.0,M,025.4,K*5D
$IIMTW,011,C*3D
$GPRMC,132428.00,A,5616.07460,N,00621.70986,W,3.637,248.60,070618,3.50,W,A*38
$GPVTG,248.60,T,252.11,M,3.637,N,6.735,K,A*28
$GPGGA,132428.00,5616.07460,N,00621.70986,W,1,10,0.93,1.5,M,52.8,M,,*44
$GPGSA,A,3,09,25,05,31,23,16,21,27,29,26,,,1.70,0.93,1.43*0E
$GPGSV,3,1,11,04,78,145,38,05,15,038,27,09,13,324,33,16,51,288,31*79
$GPGSV,3,2,11,21,52,149,36,23,12,290,36,25,07,119,15,26,79,246,24*78
$GPGSV,3,3,11,27,17,247,24,29,39,069,28,31,30,191,34*46
$GPGLL,5616.07460,N,00621.70986,W,132428.00,A,A*71
$GPGST,132428.00,27,,,,2.8,2.4,6.9*5F
$IIHDM,273,M*3A
$IIVHW,,T,273,M,00.00,N,00.00,K*63
$IIDBT,106.8,f,032.5,M,017.8,F*14
$IIVWR,037,R,13.7,N,07.0,M,025.4,K*52
$IIMTW,011,C*3D
$GPRMC,132429.00,A,5616.07419,N,00621.71157,W,3.646,247.67,070618,3.50,W,A*3C
$GPVTG,247.67,T,251.17,M,3.646,N,6.752,K,A*22
$GPGGA,132429.00,5616.07419,N,00621.71157,W,1,09,0.93,1.4,M,52.8,M,,*47
$GPGSA,A,3,09,05,31,23,16,21,27,29,26,,,,1.70,0.93,1.43*09
$OCXDR,P,1.0205,B,Barometer*1D
$GPGSV,3,1,11,04,78,145,37,05,15,038,35,09,13,324,33,16,51,288,25*70
$GPGSV,3,2,11,21,52,149,34,23,12,290,37,25,07,119,,26,79,246,30*7A
$GPGSV,3,3,11,27,17,247,23,29,39,069,35,31,30,191,34*4D
$GPGLL,5616.07419,N,00621.71157,W,132429.00,A,A*7B
$GPGST,132429.00,24,,,,2.8,2.4,7.0*55
$IIHDM,273,M*3A
$IIVHW,,T,273,M,00.00,N,00.00,K*63
$IIDBT,107.0,f,032.6,M,017.8,F*1E
!AIVDM,1,1,,B,4h2=aH@000111wP852PE?;700T84,0*78
$IIVWR,035,R,13.8,N,07.1,M,025.6,K*5C
$IIMTW,011,C*3D
$GPRMC,132430.00,A,5616.07374,N,00621.71328,W,3.701,246.48,070618,3.50,W,A*3C
$GPVTG,246.48,T,249.98,M,3.701,N,6.854,K,A*2B
$GPGGA,132430.00,5616.07374,N,00621.71328,W,1,09,0.93,1.4,M,52.8,M,,*49
$GPGSA,A,3,09,05,31,23,16,21,27,29,26,,,,1.70,0.93,1.43*09
$GPGSV,3,1,11,04,78,145,37,05,15,038,32,09,13,324,32,16,51,288,26*75
$GPGSV,3,2,11,21,52,149,35,23,12,290,36,25,07,119,,26,79,246,30*7A
$GPGSV,3,3,11,27,17,247,24,29,39,069,35,31,30,191,35*4B
$GPGLL,5616.07374,N,00621.71328,W,132430.00,A,A*75
$GPGST,132430.00,23,,,,2.8,2.5,7.0*5B
$IIHDM,273,M*3A
$IIVHW,,T,273,M,00.00,N,00.00,K*63
$IIDBT,107.1,f,032.6,M,017.8,F*1F
$IIVWR,038,R,13.6,N,06.9,M,025.1,K*51
$IIMTW,011,C*3D
$GPRMC,132431.00,A,5616.07334,N,00621.71514,W,3.818,247.55,070618,3.50,W,A*3A
$GPVTG,247.55,T,251.05,M,3.818,N,7.070,K,A*23
$GPGGA,132431.00,5616.07334,N,00621.71514,W,1,09,0.93,1.4,M,52.8,M,,*45
$GPGSA,A,3,09,05,31,23,16,21,27,29,26,,,,1.70,0.93,1.43*09
$GPGSV,3,1,11,04,78,145,39,05,15,038,27,09,13,324,35,16,51,288,31*7E
$GPGSV,3,2,11,21,52,149,35,23,12,290,38,25,07,119,,26,79,246,30*74
$GPGSV,3,3,11,27,17,247,25,29,39,069,27,31,30,191,31*4D
$GPGLL,5616.07334,N,00621.71514,W,132431.00,A,A*79
$GPGST,132431.00,28,,,,2.8,2.5,7.1*50
$IIHDM,273,M*3A
$IIVHW,,T,273,M,00.00,N,00.00,K*63
$IIDBT,107.1,f,032.6,M,017.8,F*1F
$IIVWR,038,R,13.8,N,07.1,M,025.6,K*51
$IIMTW,011,C*3D
$GPRMC,132432.00,A,5616.07297,N,00621.71683,W,3.731,247.67,070618,3.50,W,A*39
$GPVTG,247.67,T,251.17,M,3.731,N,6.910,K,A*2B
$GPGGA,132432.00,5616.07297,N,00621.71683,W,1,10,0.93,1.3,M,52.8,M,,*4C
$GPGSA,A,3,09,25,05,31,23,16,21,27,29,26,,,1.70,0.93,1.43*0E
$GPGSV,3,1,11,04,78,145,37,05,15,038,35,09,13,324,36,16,51,288,25*75
$GPGSV,3,2,11,21,52,149,34,23,12,290,37,25,07,119,14,26,79,246,30*7F
$GPGSV,3,3,11,27,17,247,25,29,39,069,29,31,30,191,34*46
$GPGLL,5616.07297,N,00621.71683,W,132432.00,A,A*7F
$GPGST,132432.00,25,,,,2.8,2.6,7.2*5E
$IIHDM,272,M*3B
$IIVHW,,T,272,M,00.00,N,00.00,K*62
$IIDBT,107.1,f,032.6,M,017.8,F*1F
$IIVWR,037,R,13.6,N,07.0,M,025.2,K*55
$IIMTW,011,C*3D
!AIVDM,1,1,,A,4h2=aH@000=HOwP852PE?;700t0M,0*21
!AIVDM,1,1,,B,13M@auP01AORr?JPFHrGan4v05aP,0*26
$GPRMC,132433.00,A,5616.07262,N,00621.71833,W,3.644,247.38,070618,3.50,W,A*3E
$GPVTG,247.38,T,250.88,M,3.644,N,6.748,K,A*26
$GPGGA,132433.00,5616.07262,N,00621.71833,W,1,10,0.93,1.4,M,52.8,M,,*45
$GPGSA,A,3,09,25,05,31,23,16,21,27,29,26,,,1.70,0.93,1.43*0E
$GPGSV,3,1,11,04,78,145,38,05,15,038,37,09,13,324,29,16,51,288,26*75
$GPGSV,3,2,11,21,52,149,35,23,12,290,34,25,07,119,17,26,79,246,34*7A
$GPGSV,3,3,11,27,17,247,25,29,39,069,38,31,30,191,35*47
$GPGLL,5616.07262,N,00621.71833,W,132433.00,A,A*71
$GPGST,132433.00,22,,,,2.7,2.5,7.1*57
!AIVDM,1,1,,B,13P<tw1P10ORsiTP<Kq3oww00<03,0*4E
$IIHDM,272,M*3B
$IIVHW,,T,272,M,00.00,N,00.00,K*62
!AIVDM,1,1,,B,13aKd`001bOQe5:PAhNPnPaL0HJV,0*3E
$IIDBT,107.3,f,032.7,M,017.8,F*1C
$IIVWR,034,R,13.5,N,06.9,M,025.1,K*5E
$IIMTW,011,C*3D
$GPRMC,132434.00,A,5616.07219,N,00621.72003,W,3.703,247.29,070618,3.50,W,A*3F
$GPVTG,247.29,T,250.79,M,3.703,N,6.859,K,A*25
$GPGGA,132434.00,5616.07219,N,00621.72003,W,1,10,0.93,1.4,M,52.8,M,,*46
$GPGSA,A,3,09,25,05,31,23,16,21,27,29,26,,,1.70,0.93,1.43*0E
$OCXDR,P,1.0205,B,Barometer*1D
$GPGSV,3,1,11,04,78,145,38,05,15,038,30,09,13,324,30,16,51,288,26*7A
$GPGSV,3,2,11,21,52,149,36,23,12,290,34,25,07,119,18,26,79,246,30*72
$GPGSV,3,3,11,27,17,247,24,29,39,069,31,31,30,191,35*4F
$GPGLL,5616.07219,N,00621.72003,W,132434.00,A,A*72
$GPGST,132434.00,24,,,,2.7,2.5,7.1*56
$IIHDM,272,M*3B
$IIVHW,,T,272,M,00.00,N,00.00,K*62
!AIVDM,1,1,,A,B3NloD00?OpftD837ojjGwi5oP06,0*0E
$IIDBT,107.7,f,032.8,M,017.9,F*16
$IIVWR,036,R,13.4,N,06.9,M,024.9,K*54
$IIMTW,011,C*3D
$GPRMC,132435.00,A,5616.07178,N,00621.72180,W,3.743,248.41,070618,3.50,W,A*35
$GPVTG,248.41,T,251.91,M,3.743,N,6.932,K,A*2B
$GPGGA,132435.00,5616.07178,N,00621.72180,W,1,10,0.79,1.2,M,52.8,M,,*4B
$GPGSA,A,3,09,25,05,31,23,16,21,27,29,26,,,1.38,0.79,1.13*03
$GPGSV,3,1,11,04,78,145,38,05,15,038,26,09,13,324,32,16,51,288,25*7C
$GPGSV,3,2,11,21,52,149,35,23,12,290,35,25,07,119,18,26,79,246,30*70
$GPGSV,3,3,11,27,17,247,23,29,39,069,31,31,30,191,36*4B
$GPGLL,5616.07178,N,00621.72180,W,132435.00,A,A*7D
$GPGST,132435.00,32,,,,2.7,2.6,7.1*53
$IIHDM,272,M*3B
$IIVHW,,T,272,M,00.00,N,00.00,K*62
$IIDBT,108.0,f,032.9,M,018.0,F*19
$IIVWR,037,R,13.6,N,07.0,M,025.3,K*54
$IIMTW,011,C*3D
$GPRMC,132436.00,A,5616.07143,N,00621.72364,W,4.004,250.05,070618,3.50,W,A*3C
$GPVTG,250.05,T,253.55,M,4.004,N,7.415,K,A*22
$GPGGA,132436.00,5616.07143,N,00621.72364,W,1,10,0.79,1.2,M,52.8,M,,*48
$GPGSA,A,3,09,25,05,31,23,16,21,27,29,26,,,1.38,0.79,1.13*03
$GPGSV,3,1,11,04,78,145,38,05,15,038,35,09,13,324,35,16,51,288,31*7C
$GPGSV,3,2,11,21,52,149,34,23,12,290,37,25,07,119,15,26,79,246,30*7E
$GPGSV,3,3,11,27,17,247,23,29,39,069,37,31,30,191,35*4E
$GPGLL,5616.07143,N,00621.72364,W,132436.00,A,A*7E
$GPGST,132436.00,32,,,,2.7,2.6,7.1*50
!AIVDM,1,1,,B,4h2=aH@000=HTwP852PE?;700pE?,0*3A
$IIHDM,272,M*3B
$IIVHW,,T,272,M,00.00,N,00.00,K*62
$IIDBT,108.0,f,032.9,M,018.0,F*19
$IIVWR,037,R,13.6,N,07.0,M,025.2,K*55
$IIMTW,011,C*3D
$GPRMC,132437.00,A,5616.07110,N,00621.72533,W,3.829,248.90,070618,3.50,W,A*3A
$GPVTG,248.90,T,252.40,M,3.829,N,7.092,K,A*29
$GPGGA,132437.00,5616.07110,N,00621.72533,W,1,10,0.79,1.2,M,52.8,M,,*4B
$GPGSA,A,3,09,25,05,31,23,16,21,27,29,26,,,1.38,0.79,1.13*03
$GPGSV,3,1,11,04,78,145,39,05,15,038,32,09,13,324,37,16,51,288,27*7F
$GPGSV,3,2,11,21,52,149,35,23,12,290,35,25,07,119,13,26,79,246,30*7B
$GPGSV,3,3,11,27,17,247,21,29,39,069,36,31,30,191,25*4C
$GPGLL,5616.07110,N,00621.72533,W,132437.00,A,A*7D
$GPGST,132437.00,39,,,,2.7,2.6,7.2*59
$IIHDM,271,M*38
$IIVHW,,T,271,M,00.00,N,00.00,K*61
$IIDBT,108.2,f,032.9,M,018.0,F*1B
$IIVWR,039,R,13.4,N,06.9,M,024.9,K*5B
$IIMTW,011,C*3D
$GPRMC,132438.00,A,5616.07069,N,00621.72696,W,3.619,247.16,070618,3.50,W,A*3A
$GPVTG,247.16,T,250.66,M,3.619,N,6.702,K,A*2C
$GPGGA,132438.00,5616.07069,N,00621.72696,W,1,10,0.79,1.2,M,52.8,M,,*47
$GPGSA,A,3,09,25,05,31,23,16,21,27,29,26,,,1.38,0.79,1.13*03
$GPGSV,3,1,11,04,78,145,36,05,15,038,28,09,13,324,35,16,51,288,26*78
$GPGSV,3,2,11,21,52,149,35,23,12,290,31,25,07,119,10,26,79,246,29*74
$GPGSV,3,3,11,27,17,247,19,29,39,069,32,31,30,191,31*46
$GPGLL,5616.07069,N,00621.72696,W,132438.00,A,A*71
$GPGST,132438.00,40,,,,2.8,2.7,7.3*57
$IIHDM,271,M*38
$IIVHW,,T,271,M,00.00,N,00.00,K*61
$IIDBT,108.3,f,033.0,M,018.0,F*12
$IIVWR,036,R,13.1,N,06.7,M,024.3,K*55
$IIMTW,011,C*3D
$GPRMC,132439.00,A,5616.07032,N,00621.72855,W,3.422,247.08,070618,3.50,W,A*31
$GPVTG,247.08,T,250.58,M,3.422,N,6.337,K,A*26
$OCXDR,P,1.0206,B,Barometer*1E
$GPGGA,132439.00,5616.07032,N,00621.72855,W,1,10,0.79,1.1,M,52.8,M,,*4A
$GPGSA,A,3,09,25,05,31,23,16,21,27,29,26,,,1.38,0.79,1.13*03
$GPGSV,3,1,11,04,78,145,38,05,15,038,33,09,13,324,36,16,51,288,25*7C
$GPGSV,3,2,11,21,52,149,35,23,12,290,35,25,07,119,12,26,79,246,28*73
$GPGSV,3,3,11,27,17,247,17,29,39,069,33,31,30,191,31*49
$GPGLL,5616.07032,N,00621.72855,W,132439.00,A,A*7F
$GPGST,132439.00,39,,,,2.8,2.7,7.4*5F
$IIHDM,271,M*38
$IIVHW,,T,271,M,00.00,N,00.00,K*61
$IIDBT,108.4,f,033.0,M,018.0,F*15
!AIVDM,1,1,,A,4h2=aHAv9SeHWwP852PE?;700`G<,0*5E
$IIVWR,038,R,13.3,N,06.8,M,024.6,K*53
$IIMTW,011,C*3D
$GPRMC,132440.00,A,5616.06993,N,00621.73031,W,3.769,246.30,070618,3.50,W,A*31
$GPVTG,246.30,T,249.80,M,3.769,N,6.981,K,A*2A
$GPGGA,132440.00,5616.06993,N,00621.73031,W,1,10,0.79,1.2,M,52.8,M,,*4F
$GPGSA,A,3,09,25,05,31,23,16,21,27,29,26,,,1.38,0.79,1.13*03
$GPGSV,3,1,11,04,78,145,37,05,15,038,29,09,13,324,36,16,51,288,26*7B
$GPGSV,3,2,11,21,52,149,35,23,12,290,33,25,07,119,15,26,79,246,32*79
$GPGSV,3,3,11,27,17,247,16,29,39,069,33,31,30,191,31*48
$GPGLL,5616.06993,N,00621.73031,W,132440.00,A,A*79
$GPGST,132440.00,34,,,,2.9,2.7,7.4*5D
$IIHDM,271,M*38
$IIVHW,,T,271,M,00.00,N,00.00,K*61
$IIDBT,108.6,f,033.1,M,018.1,F*17
$IIVWR,037,R,13.3,N,06.8,M,024.7,K*5D
$IIMTW,011,C*3D
$GPRMC,132441.00,A,5616.06955,N,00621.73208,W,3.876,245.74,070618,3.50,W,A*30
$GPVTG,245.74,T,249.25,M,3.876,N,7.179,K,A*29
$GPGGA,132441.00,5616.06955,N,00621.73208,W,1,10,0.79,1.5,M,52.8,M,,*4B
$GPGSA,A,3,09,25,05,31,23,16,21,27,29,26,,,1.38,0.79,1.13*03
$GPGSV,3,1,11,04,78,145,39,05,15,038,33,09,13,324,38,16,51,288,27*71
$GPGSV,3,2,11,21,52,149,35,23,12,290,29,25,07,119,21,26,79,246,32*75
$GPGSV,3,3,11,27,17,247,19,29,39,069,33,31,30,191,24*43
$GPGLL,5616.06955,N,00621.73208,W,132441.00,A,A*7A
$GPGST,132441.00,32,,,,2.9,2.7,7.4*5A
$IIHDM,270,M*39
$IIVHW,,T,270,M,00.00,N,00.00,K*60
$IIDBT,108.7,f,033.1,M,018.1,F*16
$IIVWR,040,R,13.3,N,06.8,M,024.6,K*5C
$IIMTW,011,C*3D
!AIVDM,1,1,,B,Dh2=aH@o`N?agLN00huN000,2*74
!AIVDM,1,1,,A,13aKd`001bOQe:4PAiDhn@ad05aP,0*67
$GPRMC,132442.00,A,5616.06913,N,00621.73394,W,3.850,245.19,070618,3.50,W,A*3A
$GPVTG,245.19,T,248.69,M,3.850,N,7.130,K,A*22
$GPGGA,132442.00,5616.06913,N,00621.73394,W,1,10,0.79,1.9,M,52.8,M,,*42
$GPGSA,A,3,09,25,05,31,23,16,21,27,29,26,,,1.38,0.79,1.13*03
$GPGSV,3,1,11,04,78,145,37,05,15,038,39,09,13,324,37,16,51,288,27*7A
$GPGSV,3,2,11,21,52,149,36,23,12,290,26,25,07,119,24,26,79,246,31*7F
$GPGSV,3,3,11,27,17,247,22,29,39,069,32,31,30,191,21*4F
$GPGLL,5616.06913,N,00621.73394,W,132442.00,A,A*7F
$GPGST,132442.00,33,,,,2.9,2.6,7.4*59
$IIHDM,270,M*39
$IIVHW,,T,270,M,00.00,N,00.00,K*60
$IIDBT,108.8,f,033.1,M,018.1,F*19
$IIVWR,039,R,13.5,N,06.9,M,025.0,K*52
$IIMTW,011,C*3D
!AIVDM,1,1,,A,13P<tw1P15ORssPP<KiCpwwB00Rc,0*6D
!AIVDM,1,1,,B,4h2=aH@000=HawP852PE?;700l0N,0*17
$GPRMC,132443.00,A,5616.06870,N,00621.73578,W,3.959,244.45,070618,3.50,W,A*3B
$GPVTG,244.45,T,247.95,M,3.959,N,7.331,K,A*2D
$GPGGA,132443.00,5616.06870,N,00621.73578,W,1,10,0.79,2.1,M,52.8,M,,*48
$GPGSA,A,3,09,25,05,31,23,16,21,27,29,26,,,1.38,0.79,1.13*03
$GPGSV,3,1,11,04,78,145,37,05,15,038,28,09,13,324,39,16,51,288,27*74
$GPGSV,3,2,11,21,52,149,36,23,12,290,27,25,07,119,24,26,79,246,32*7D
$GPGSV,3,3,11,27,17,247,21,29,39,069,33,31,30,191,21*4D
$GPGLL,5616.06870,N,00621.73578,W,132443.00,A,A*7E
$GPGST,132443.00,32,,,,3.0,2.6,7.4*51
$IIHDM,270,M*39
$IIVHW,,T,270,M,00.00,N,00.00,K*60
$IIDBT,108.8,f,033.1,M,018.1,F*19
$IIVWR,038,R,13.5,N,06.9,M,025.0,K*53
$IIMTW,011,C*3D
!AIVDM,1,1,,A,13M@auP01AORr;fPFGuo`63D0HIW,0*13
$GPRMC,132444.00,A,5616.06815,N,00621.73773,W,4.198,242.01,070618,3.50,W,A*32
$GPVTG,242.01,T,245.51,M,4.198,N,7.774,K,A*26
$GPGGA,132444.00,5616.06815,N,00621.73773,W,1,10,0.79,2.4,M,52.8,M,,*40
$GPGSA,A,3,09,25,05,31,23,16,21,27,29,26,,,1.38,0.79,1.13*03
$OCXDR,P,1.0205,B,Barometer*1D
$GPGSV,3,1,11,04,78,145,37,05,15,038,33,09,13,324,35,16,51,288,26*73
$GPGSV,3,2,11,21,52,149,36,23,12,290,25,25,07,119,25,26,79,246,32*7E
$GPGSV,3,3,11,27,17,247,21,29,39,069,32,31,30,191,21*4C
$GPGLL,5616.06815,N,00621.73773,W,132444.00,A,A*73
$GPGST,132444.00,31,,,,3.0,2.6,7.4*55
$IIHDM,270,M*39
$IIVHW,,T,270,M,00.00,N,00.00,K*60
$IIDBT,108.9,f,033.2,M,018.1,F*1B
$IIVWR,041,R,13.0,N,06.6,M,024.0,K*56
$IIMTW,011,C*3D
$GPRMC,132445.00,A,5616.06767,N,00621.73933,W,3.838,242.53,070618,3.50,W,A*30
$GPVTG,242.53,T,246.03,M,3.838,N,7.108,K,A*2C
$GPGGA,132445.00,5616.06767,N,00621.73933,W,1,10,0.79,2.3,M,52.8,M,,*46
$GPGSA,A,3,09,25,05,31,23,16,21,27,29,26,,,1.38,0.79,1.13*03
$GPGSV,3,1,11,04,78,145,37,05,15,038,32,09,13,324,37,16,51,288,25*73
$GPGSV,3,2,11,21,52,149,36,23,12,290,26,25,07,119,25,26,79,246,28*76
$GPGSV,3,3,11,27,17,247,19,29,39,069,35,31,30,191,22*43
$GPGLL,5616.06767,N,00621.73933,W,132445.00,A,A*72
$GPGST,132445.00,32,,,,3.1,2.7,7.4*57
$IIHDM,269,M*31
$IIVHW,,T,269,M,00.00,N,00.00,K*68
$IIDBT,109.0,f,033.2,M,018.1,F*13
$IIVWR,038,R,13.1,N,06.7,M,024.2,K*5A
$IIMTW,011,C*3D
$GPRMC,132446.00,A,5616.06719,N,00621.74091,W,3.947,243.72,070618,3.50,W,A*37
$GPVTG,243.72,T,247.22,M,3.947,N,7.309,K,A*26
$GPGGA,132446.00,5616.06719,N,00621.74091,W,1,10,0.79,1.8,M,52.8,M,,*42
$GPGSA,A,3,09,25,05,31,23,16,21,27,29,26,,,1.38,0.79,1.13*03
$GPGSV,3,1,11,04,78,145,38,05,15,038,36,09,13,324,38,16,51,288,32*71
$GPGSV,3,2,11,21,52,149,34,23,12,290,29,25,07,119,25,26,79,246,32*70
$GPGSV,3,3,11,27,17,247,17,29,39,069,36,31,30,191,23*4F
$GPGLL,5616.06719,N,00621.74091,W,132446.00,A,A*7E
$GPGST,132446.00,32,,,,3.1,2.6,7.4*55
!AIVDM,1,1,,A,4h2=aH@000=HfwP852PE?;700PS:,0*38
$IIHDM,269,M*31
$IIVHW,,T,269,M,00.00,N,00.00,K*68
$IIDBT,109.2,f,033.3,M,018.2,F*13
$IIVWR,040,R,13.2,N,06.8,M,024.6,K*5D
$IIMTW,011,C*3D
$GPRMC,132447.00,A,5616.06674,N,00621.74282,W,4.112,244.49,070618,3.50,W,A*3C
$GPVTG,244.49,T,248.0,M,4.112,N,7.615,K,A*11
$GPGGA,132447.00,5616.06674,N,00621.74282,W,1,10,0.79,2.1,M,52.8,M,,*43
$GPGSA,A,3,09,25,05,31,23,16,21,27,29,26,,,1.38,0.79,1.13*03
$GPGSV,3,1,11,04,78,145,37,05,15,038,36,09,13,324,35,16,51,288,27*77
$GPGSV,3,2,11,21,52,149,34,23,12,290,29,25,07,119,25,26,79,246,31*73
$GPGSV,3,3,11,27,17,247,16,29,39,069,29,31,30,191,21*42
$GPGLL,5616.06674,N,00621.74282,W,132447.00,A,A*75
$GPGST,132447.00,34,,,,3.2,2.6,7.4*51
$IIHDM,269,M*31
$IIVHW,,T,269,M,00.00,N,00.00,K*68
$IIDBT,109.2,f,033.3,M,018.2,F*13
$IIVWR,038,R,13.1,N,06.7,M,024.4,K*5C
$IIMTW,011,C*3D
$GPRMC,132448.00,A,5616.06623,N,00621.74466,W,3.967,244.45,070618,3.50,W,A*3C
$GPVTG,244.45,T,247.95,M,3.967,N,7.347,K,A*21
$GPGGA,132448.00,5616.06623,N,00621.74466,W,1,10,0.79,2.1,M,52.8,M,,*42
$GPGSA,A,3,09,25,05,31,23,16,21,27,29,26,,,1.38,0.79,1.13*03
$GPGSV,3,1,11,04,78,145,37,05,15,038,26,09,13,324,27,16,51,288,32*71
$GPGSV,3,2,11,21,52,149,36,23,12,290,30,25,07,119,24,26,79,246,31*78
$GPGSV,3,3,11,27,17,247,19,29,39,069,33,31,30,191,25*42
$GPGLL,5616.06623,N,00621.74466,W,132448.00,A,A*74
$GPGST,132448.00,34,,,,3.2,2.6,7.5*5F
$IIHDM,269,M*31
$IIVHW,,T,269,M,00.00,N,00.00,K*68
$IIDBT,109.2,f,033.3,M,018.2,F*13
$IIVWR,036,R,12.8,N,06.6,M,023.7,K*5F
$IIMTW,011,C*3D
$GPRMC,132449.00,A,5616.06569,N,00621.74662,W,4.246,245.17,070618,3.50,W,A*3F
$GPVTG,245.17,T,248.67,M,4.246,N,7.864,K,A*20
$OCXDR,P,1.0205,B,Barometer*1D
$GPGGA,132449.00,5616.06569,N,00621.74662,W,1,10,0.79,2.0,M,52.8,M,,*49
$GPGSA,A,3,09,25,05,31,23,16,21,27,29,26,,,1.38,0.79,1.13*03
$GPGSV,3,1,11,04,78,145,37,05,15,038,26,09,13,324,34,16,51,288,34*75
$GPGSV,3,2,11,21,52,149,36,23,12,290,35,25,07,119,21,26,79,246,31*78
$GPGSV,3,3,11,27,17,247,19,29,39,069,28,31,30,191,32*4E
$GPGLL,5616.06569,N,00621.74662,W,132449.00,A,A*7E
$GPGST,132449.00,34,,,,3.3,2.7,7.5*5E
$IIHDM,268,M*30
$IIVHW,,T,268,M,00.00,N,00.00,K*69
$IIDBT,109.2,f,033.3,M,018.2,F*13
!AIVDM,1,1,,B,4h2=aH@000111wP852PE?;700l0O,0*33
$IIVWR,036,R,12.9,N,06.6,M,024.0,K*5E
$IIMTW,011,C*3D
$GPRMC,132450.00,A,5616.06519,N,00621.74854,W,3.970,245.48,070618,3.50,W,A*38
$GPVTG,245.48,T,248.98,M,3.970,N,7.353,K,A*2C
$GPGGA,132450.00,5616.06519,N,00621.74854,W,1,10,0.79,1.7,M,52.8,M,,*49
$GPGSA,A,3,09,25,05,31,23,16,21,27,29,26,,,1.38,0.79,1.13*03
$GPGSV,3,1,11,04,78,145,39,05,15,038,32,09,13,324,35,16,51,288,26*7C
$GPGSV,3,2,11,21,52,149,36,23,12,290,38,25,07,119,18,26,79,246,28*77
$GPGSV,3,3,11,27,17,247,19,29,39,069,29,31,30,191,33*4E
$GPGLL,5616.06519,N,00621.74854,W,132450.00,A,A*7A
$GPGST,132450.00,33,,,,3.3,2.7,7.5*51
$IIHDM,268,M*30
$IIVHW,,T,268,M,00.00,N,00.00,K*69
$IIDBT,109.2,f,033.3,M,018.2,F*13
$IIVWR,038,R,13.0,N,06.7,M,024.1,K*58
$IIMTW,011,C*3D
!AIVDM,1,1,,A,33M@auPPA@ORr9LPFGGWU61R00l0,0*39
$GPRMC,132451.00,A,5616.06478,N,00621.75023,W,3.638,244.90,070618,3.50,W,A*31
$GPVTG,244.90,T,248.40,M,3.638,N,6.737,K,A*29
$GPGGA,132451.00,5616.06478,N,00621.75023,W,1,10,0.79,1.9,M,52.8,M,,*49
$GPGSA,A,3,09,25,05,31,23,16,21,27,29,26,,,1.38,0.79,1.13*03
$GPGSV,3,1,11,04,78,145,37,05,15,038,32,09,13,324,33,16,51,288,31*72
$GPGSV,3,2,11,21,52,149,36,23,12,290,35,25,07,119,13,26,79,246,28*71
$GPGSV,3,3,11,27,17,247,20,29,39,069,31,31,30,191,33*4D
$GPGLL,5616.06478,N,00621.75023,W,132451.00,A,A*74
$GPGST,132451.00,37,,,,3.4,2.7,7.6*50
$IIHDM,268,M*30
$IIVHW,,T,268,M,00.00,N,00.00,K*69
$IIDBT,109.2,f,033.3,M,018.2,F*13
$IIVWR,036,R,13.0,N,06.7,M,024.1,K*56
$IIMTW,011,C*3D
$GPRMC,132452.00,A,5616.06431,N,00621.75194,W,3.610,246.40,070618,3.50,W,A*37
$GPVTG,246.40,T,249.90,M,3.610,N,6.686,K,A*2B
$GPGGA,132452.00,5616.06431,N,00621.75194,W,1,10,0.79,1.6,M,52.8,M,,*45
$GPGSA,A,3,09,25,05,31,23,16,21,27,29,26,,,1.38,0.79,1.13*03
$GPGSV,3,1,11,04,78,145,37,05,15,038,28,09,13,324,33,16,51,288,26*7F
$GPGSV,3,2,11,21,52,149,35,23,12,290,37,25,07,119,12,26,79,246,27*7E
$GPGSV,3,3,11,27,17,247,21,29,39,069,30,31,30,191,34*4A
$GPGLL,5616.06431,N,00621.75194,W,132452.00,A,A*77
$GPGST,132452.00,38,,,,3.4,2.7,7.6*5C
$IIHDM,268,M*30
$IIVHW,,T,268,M,00.00,N,00.00,K*69
$IIDBT,109.2,f,033.3,M,018.2,F*13
!AIVDM,1,1,,B,13P<tw1P11ORt5:P<Kb3ogwV08Nk,0*3D
$IIVWR,036,R,13.2,N,06.8,M,024.4,K*5E
$IIMTW,011,C*3D
!AIVDM,1,1,,A,4h2=aH@000=HkwP852PE?;700d0O,0*17
!AIVDM,1,1,,B,13aKd`001bOQe@rPAjO@n@b:00Rw,0*34
$GPRMC,132453.00,A,5616.06385,N,00621.75365,W,3.697,248.83,070618,3.50,W,A*3C
$GPVTG,248.83,T,252.33,M,3.697,N,6.847,K,A*25
$GPGGA,132453.00,5616.06385,N,00621.75365,W,1,10,0.79,1.0,M,52.8,M,,*46
$GPGSA,A,3,09,25,05,31,23,16,21,27,29,26,,,1.38,0.79,1.13*03
$GPGSV,3,1,11,04,78,145,37,05,15,038,36,09,13,324,32,16,51,288,31*77
$GPGSV,3,2,11,21,52,149,35,23,12,290,39,25,07,119,12,26,79,246,32*74
!AIVDM,1,1,,B,33M@auP01@ORr8hPFG7GRV1`013P,0*04
$GPGSV,3,3,11,27,17,247,23,29,39,069,37,31,30,191,34*4F
$GPGLL,5616.06385,N,00621.75365,W,132453.00,A,A*72
$GPGST,132453.00,34,,,,3.3,2.6,7.5*54
$IIHDM,268,M*30
$IIVHW,,T,268,M,00.00,N,00.00,K*69
!AIVDM,1,1,,B,3CM@auP01@ORr8hPFG7GRV1`0000,0*16
$IIDBT,109.2,f,033.3,M,018.2,F*13
$IIVWR,037,R,13.1,N,06.7,M,024.3,K*54
$IIMTW,011,C*3D
$GPRMC,132454.00,A,5616.06350,N,00621.75539,W,3.731,250.82,070618,3.50,W,A*39
$GPVTG,250.82,T,254.33,M,3.731,N,6.909,K,A*2D
$GPGGA,132454.00,5616.06350,N,00621.75539,W,1,10,0.79,1.0,M,52.8,M,,*46
$GPGSA,A,3,09,25,05,31,23,16,21,27,29,26,,,1.38,0.79,1.13*03
$OCXDR,P,1.0205,B,Barometer*1D
$GPGSV,3,1,11,04,78,145,38,05,15,038,35,09,13,324,32,16,51,288,27*7C
$GPGSV,3,2,11,21,52,149,34,23,12,290,36,25,07,119,12,26,79,246,31*79
$GPGSV,3,3,11,27,17,247,21,29,39,069,35,31,30,191,34*4F
$GPGLL,5616.06350,N,00621.75539,W,132454.00,A,A*72
$GPGST,132454.00,36,,,,3.3,2.6,7.5*51
$IIHDM,268,M*30
$IIVHW,,T,268,M,00.00,N,00.00,K*69
$IIDBT,109.2,f,033.3,M,018.2,F*13
$IIVWR,035,R,13.3,N,06.8,M,024.7,K*5F
$IIMTW,011,C*3D
$GPRMC,132455.00,A,5616.06314,N,00621.75695,W,3.864,251.90,070618,3.50,W,A*30
$GPVTG,251.90,T,255.40,M,3.864,N,7.157,K,A*27
$GPGGA,132455.00,5616.06314,N,00621.75695,W,1,10,0.79,0.4,M,52.8,M,,*47
$GPGSA,A,3,09,25,05,31,23,16,21,27,29,26,,,1.38,0.79,1.13*03
$GPGSV,3,1,11,04,78,145,40,05,15,038,38,09,13,324,32,16,51,288,26*7F
$GPGSV,3,2,11,21,52,149,37,23,12,290,33,25,07,119,12,26,79,246,30*7E
$GPGSV,3,3,11,27,17,247,20,29,39,069,40,31,30,191,32*4A
$GPGLL,5616.06314,N,00621.75695,W,132455.00,A,A*76
$GPGST,132455.00,37,,,,3.2,2.5,7.4*52
!AIVDM,1,1,,A,BCP;1=h08WpIoj81Np6dows5n000,0*2E
$IIHDM,268,M*30
$IIVHW,,T,268,M,00.00,N,00.00,K*69
$IIDBT,109.2,f,033.3,M,018.2,F*13
$IIVWR,030,R,13.6,N,07.0,M,025.2,K*52
$IIMTW,011,C*3D
$GPRMC,132456.00,A,5616.06287,N,00621.75874,W,4.111,252.10,070618,3.50,W,A*3E
$GPVTG,252.10,T,255.61,M,4.111,N,7.613,K,A*24
$GPGGA,132456.00,5616.06287,N,00621.75874,W,1,10,0.79,0.6,M,52.8,M,,*4C
$GPGSA,A,3,09,25,05,31,23,16,21,27,29,26,,,1.38,0.79,1.13*03
$GPGSV,3,1,11,04,78,145,37,05,15,038,39,09,13,324,32,16,51,288,27*7F
$GPGSV,3,2,11,21,52,149,36,23,12,290,34,25,07,119,17,26,79,246,26*7A
$GPGSV,3,3,11,27,17,247,20,29,39,069,39,31,30,191,33*45
$GPGLL,5616.06287,N,00621.75874,W,132456.00,A,A*7F
$GPGST,132456.00,31,,,,3.1,2.4,7.3*52
!AIVDM,1,1,,B,4h2=aH@000111wP852PE?;700`Pu,0*65
$IIHDM,268,M*30
$IIVHW,,T,268,M,00.00,N,00.00,K*69
$IIDBT,109.3,f,033.3,M,018.2,F*12
!AIVDM,1,1,,B,4NjHC61v9SeHowS@5DOa;Io00000,0*71
$IIVWR,033,R,13.1,N,06.7,M,024.4,K*57
$IIMTW,011,C*3D
$GPRMC,132457.00,A,5616.06266,N,00621.76058,W,3.851,252.63,070618,3.50,W,A*3B
$GPVTG,252.63,T,256.14,M,3.851,N,7.132,K,A*2F
$GPGGA,132457.00,5616.06266,N,00621.76058,W,1,10,0.79,1.1,M,52.8,M,,*41
$GPGSA,A,3,09,25,05,31,23,16,21,27,29,26,,,1.38,0.79,1.13*03
$GPGSV,3,1,11,04,78,145,38,05,15,038,39,09,13,324,35,16,51,288,26*76
$GPGSV,3,2,11,21,52,149,35,23,12,290,35,25,07,119,17,26,79,246,34*7B
$GPGSV,3,3,11,27,17,247,19,29,39,069,39,31,30,191,33*4F
$GPGLL,5616.06266,N,00621.76058,W,132457.00,A,A*74
$GPGST,132457.00,30,,,,3.1,2.3,7.1*57
$IIHDM,268,M*30
$IIVHW,,T,268,M,00.00,N,00.00,K*69
$IIDBT,109.4,f,033.3,M,018.2,F*15
$IIVWR,032,R,13.5,N,06.9,M,025.1,K*58
$IIMTW,011,C*3D
$GPRMC,132458.00,A,5616.06236,N,00621.76226,W,3.814,253.20,070618,3.50,W,A*3D
$GPVTG,253.20,T,256.70,M,3.814,N,7.063,K,A*2F
$GPGGA,132458.00,5616.06236,N,00621.76226,W,1,10,0.79,0.8,M,52.8,M,,*48
$GPGSA,A,3,09,25,05,31,23,16,21,27,29,26,,,1.38,0.79,1.13*03
$GPGSV,3,1,11,04,78,145,39,05,15,038,37,09,13,324,35,16,51,288,26*79
$GPGSV,3,2,11,21,52,149,35,23,12,290,36,25,07,119,16,26,79,246,33*7E
$GPGSV,3,3,11,27,17,247,22,29,39,069,38,31,30,191,34*41
$GPGLL,5616.06236,N,00621.76226,W,132458.00,A,A*75
$GPGST,132458.00,33,,,,3.0,2.2,7.0*5A
$IIHDM,268,M*30
$IIVHW,,T,268,M,00.00,N,00.00,K*69
$IIDBT,109.4,f,033.3,M,018.2,F*15
$IIVWR,031,R,13.7,N,07.0,M,025.4,K*54
$IIMTW,011,C*3D
!AIVDM,1,1,,A,33M@auPPA@ORr7`PFFdGN5wj01Vh,0*2C
!AIVDM,1,1,,A,3CM@auPPA@ORr7`PFFdGN5wj0000,0*63
$GPRMC,132459.00,A,5616.06206,N,00621.76415,W,3.749,252.81,070618,3.50,W,A*34
$GPVTG,252.81,T,256.32,M,3.749,N,6.943,K,A*2E
$OCXDR,P,1.0205,B,Barometer*1D
$GPGGA,132459.00,5616.06206,N,00621.76415,W,1,10,0.79,1.1,M,52.8,M,,*44
$GPGSA,A,3,09,25,05,31,23,16,21,27,29,26,,,1.38,0.79,1.13*03
$GPGSV,3,1,11,04,78,145,37,05,15,038,40,09,13,324,35,16,51,288,32*72
$GPGSV,3,2,11,21,52,149,36,23,12,290,35,25,07,119,18,26,79,246,33*70
$GPGSV,3,3,11,27,17,247,25,29,39,069,39,31,30,191,35*46
$GPGLL,5616.06206,N,00621.76415,W,132459.00,A,A*71
$GPGST,132459.00,25,,,,2.9,2.1,6.8*5E
$IIHDM,268,M*30
$IIVHW,,T,268,M,00.00,N,00.00,K*69
$IIDBT,110.2,f,033.6,M,018.3,F*1F
!AIVDM,1,1,,A,4h2=aHAv9SeHqwP852PE?;700l0O,0*70
$IIVWR,030,R,13.5,N,06.9,M,025.0,K*5B
$IIMTW,011,C*3D
$GPRMC,132500.00,A,5616.06182,N,00621.76584,W,3.610,253.26,070618,3.50,W,A*3E
$GPVTG,253.26,T,256.76,M,3.610,N,6.686,K,A*29
$GPGGA,132500.00,5616.06182,N,00621.76584,W,1,10,0.79,1.5,M,52.8,M,,*4B
$GPGSA,A,3,09,25,05,31,23,16,21,27,29,26,,,1.38,0.79,1.13*03
$GPGSV,3,1,11,04,78,145,39,05,15,038,37,09,13,324,27,16,51,288,32*7F
$GPGSV,3,2,11,21,52,149,34,23,12,290,33,25,07,119,19,26,79,246,28*7F
$GPGSV,3,3,11,27,17,247,26,29,39,069,40,31,30,191,34*4A
$GPGLL,5616.06182,N,00621.76584,W,132500.00,A,A*7A
$GPGST,132500.00,29,,,,2.9,2.1,6.8*5F
!AIVDM,1,1,,B,33M@auPPA@ORr7>PFFQGKmwn00uh,0*3F
$IIHDM,268,M*30
$IIVHW,,T,268,M,00.00,N,00.00,K*69
$IIDBT,110.7,f,033.7,M,018.4,F*1C
$IIVWR,029,R,13.4,N,06.9,M,024.9,K*5A
$IIMTW,011,C*3D
!AIVDM,1,1,,B,3CM@auPPA@ORr7>PFFQGKmwn0000,0*52
$GPRMC,132501.00,A,5616.06153,N,00621.76776,W,3.803,255.90,070618,3.50,W,A*3B
$GPVTG,255.90,T,259.41,M,3.803,N,7.043,K,A*2B
$GPGGA,132501.00,5616.06153,N,00621.76776,W,1,10,0.79,1.5,M,52.8,M,,*49
$GPGSA,A,3,09,25,05,31,23,16,21,27,29,26,,,1.38,0.79,1.13*03
$GPGSV,3,1,11,04,78,144,40,05,15,038,35,09,13,324,32,16,51,288,32*76
$GPGSV,3,2,11,21,52,149,35,23,12,290,32,25,07,119,19,26,79,246,33*75
$GPGSV,3,3,11,27,17,247,25,29,39,069,38,31,30,191,34*46
$GPGLL,5616.06153,N,00621.76776,W,132501.00,A,A*78
$GPGST,132501.00,26,,,,2.9,2.1,6.7*5E
$IIHDM,268,M*30
$IIVHW,,T,268,M,00.00,N,00.00,K*69
$IIDBT,110.6,f,033.7,M,018.4,F*1D
